source,station_code,station_name,lat,lon,height_m,start_time,duration_s,sampling_rate_hz,intensity,acc_NS,acc_EW,acc_UD,acc_H,acc_total,vel_NS,vel_EW,vel_UD,vel_H,vel_total,disp_NS,disp_EW,disp_UD,disp_H,disp_total
JMA,41101,千歳市北栄,42.8259,141.6414,,2025-12-08T23:15:30.000,420.0,100,5弱,-93.796,-130.159,-44.172,130.17,131.961,-13.549,-16.004,-3.337,16.694,16.718,11.908,8.018,-1.941,13.829,13.845
JMA,41102,江別市高砂町,43.1037,141.5359,,2025-12-08T23:15:30.000,300.0,100,4,42.07,-43.687,14.869,47.94,48.923,6.331,4.015,-1.882,6.413,6.417,3.028,1.796,-1.255,3.129,3.201
JMA,41103,夕張市若菜,43.0287,141.9654,,2025-12-08T23:15:30.000,300.0,100,4,42.743,-50.655,-25.242,50.666,51.322,-6.876,-4.312,-2.31,7.418,7.542,3.592,1.77,-0.875,3.616,3.618
JMA,41104,滝川市大町,43.5574,141.9108,,2025-12-08T23:15:40.000,300.0,100,3,-20.766,-19.138,-11.409,25.527,25.795,-4.931,3.548,-2.374,5.059,5.108,-2.171,-1.56,0.988,2.412,2.413
JMA,41105,美唄市西５条,43.3345,141.8468,,2025-12-08T23:15:40.000,300.0,100,4,-29.816,34.718,10.441,35.126,35.185,3.955,4.074,-1.465,4.082,4.087,1.203,1.274,0.48,1.441,1.441
JMA,41106,名寄市大通,44.3557,142.4632,,2025-12-08T23:16:00.000,240.0,100,2,4.641,-5.721,-2.649,6.172,6.181,-1.24,-1.539,0.696,1.539,1.54,-0.584,0.593,-0.583,0.617,0.753
JMA,41107,富良野市若松町,43.3457,142.3843,,2025-12-08T23:15:40.000,300.0,100,4,37.096,-19.939,-11.334,37.186,37.361,-3.943,-4.01,-2.881,4.109,4.124,-2.102,-1.568,-1.607,2.16,2.402
JMA,41108,士別市東６条,44.1771,142.4013,,2025-12-08T23:15:50.000,300.0,100,3,-8.466,10.879,-3.381,10.884,10.896,1.672,1.828,1.005,1.875,1.906,1.122,0.56,0.792,1.123,1.242
JMA,41109,北見市公園町,43.8177,143.9032,,2025-12-08T23:15:50.000,420.0,100,4,-29.297,24.867,-18.843,29.867,31.749,-5.471,-3.861,3.289,5.507,5.989,-1.887,-1.695,0.665,2.317,2.39
JMA,41110,胆振伊達市梅本,42.4739,140.8761,,2025-12-08T23:15:30.000,300.0,100,4,-55.947,-55.615,22.107,59.722,60.07,-4.153,-4.93,1.691,5.476,5.482,1.779,-1.498,-0.777,1.956,2.052
JMA,41201,弘前市和田町,40.6114,140.4553,,2025-12-08T23:15:20.000,420.0,100,3,20.631,-19.116,-10.916,22.983,22.994,-4.528,5.361,2.829,5.439,5.462,3.384,-3.695,1.001,3.812,3.812
JMA,41202,五所川原市栄町,40.7995,140.4429,,2025-12-08T23:15:20.000,300.0,100,5弱,94.785,75.71,-26.203,103.439,103.54,13.81,10.972,4.135,14.847,14.896,-3.912,3.396,-1.329,4.868,4.878
JMA,41203,二戸市福岡,40.2722,141.3037,,2025-12-08T23:15:10.000,300.0,100,4,89.411,-79.067,40.254,91.516,93.914,-13.155,8.65,-4.32,13.38,13.393,-4.191,2.169,-0.849,4.346,4.355
JMA,41204,久慈市川崎町,40.1894,141.7754,,2025-12-08T23:15:10.000,360.0,100,4,46.495,-62.652,33.669,64.756,64.757,-4.507,-4.855,-1.557,4.982,4.989,1.147,1.819,-0.731,1.965,1.973
JMA,41205,釜石市只越町,39.276,141.8856,,2025-12-08T23:15:20.000,360.0,100,3,42.318,43.44,19.394,52.61,53.115,-1.332,2.215,0.868,2.215,2.229,0.635,0.841,0.393,0.912,0.95
JMA,41206,北上市柳原町,39.2929,141.1095,,2025-12-08T23:15:30.000,360.0,100,4,-49.295,-49.375,-25.477,56.14,56.675,6.009,6.634,3.418,8.364,8.415,1.757,-1.126,0.697,1.94,1.947
JMA,41207,奥州市水沢大鐘町,39.1292,141.1381,,2025-12-08T23:15:30.000,420.0,100,4,-47.743,-36.091,-22.619,47.761,47.771,-6.26,-5.64,2.74,7.167,7.222,2.452,-2.697,-0.721,3.237,3.242
JMA,41208,気仙沼市赤岩,38.8806,141.5743,,2025-12-08T23:15:30.000,360.0,100,3,42.333,-52.705,11.045,58.463,58.487,-1.79,2.414,-1.026,2.749,2.82,1.172,1.029,0.679,1.185,1.303
JMA,41209,大崎市古川三日町,38.5741,140.9561,,2025-12-08T23:15:40.000,300.0,100,4,36.788,-40.629,10.313,52.089,52.089,5.029,-5.356,2.056,6.451,6.559,-2.377,-1.788,0.834,2.499,2.502
JMA,41210,能代市緑町,40.1989,140.033,,2025-12-08T23:15:30.000,300.0,100,3,-13.538,-11.81,-6.386,16.432,16.752,6.39,4.232,-2.397,6.392,6.583,-5.8,-3.083,-1.838,5.836,5.97
JMA,41211,由利本荘市石脇,39.3988,140.0469,,2025-12-08T23:15:40.000,300.0,100,3,-10.018,-10.397,-5.477,11.247,11.734,2.812,-1.638,-1.188,3.173,3.346,1.394,0.872,-0.529,1.573,1.617
JMA,41212,湯沢市沖鶴,39.174,140.4796,,2025-12-08T23:15:30.000,300.0,100,3,-16.775,-18.157,-6.028,18.5,18.537,1.967,2.487,0.967,2.631,2.652,0.906,0.743,0.44,0.974,0.974
JMA,41213,鶴岡市馬場町,38.7271,139.8274,,2025-12-08T23:15:50.000,300.0,100,3,7.944,8.06,2.939,9.155,9.156,-1.202,2.075,0.668,2.092,2.112,-0.836,-1.207,0.321,1.218,1.219
JMA,41214,米沢市駅前,37.9125,140.1211,,2025-12-08T23:16:00.000,300.0,100,2,5.572,-5.778,-2.783,6.442,6.497,1.185,-1.105,-0.541,1.295,1.302,0.497,0.594,-0.174,0.714,0.718
JMA,41215,郡山市朝日,37.4009,140.36,,2025-12-08T23:16:00.000,300.0,100,3,13.0,-17.061,5.049,17.337,17.412,1.57,1.915,0.583,2.041,2.067,0.367,1.039,-0.761,1.054,1.3
JMA,41216,南相馬市原町区三島町,37.6413,140.9558,,2025-12-08T23:15:50.000,300.0,100,3,12.067,11.202,5.147,13.465,13.687,1.58,1.656,-0.765,1.75,1.759,-0.696,-0.839,0.319,0.84,0.841
JMA,41301,坂東市岩井,36.0407,139.8832,,2025-12-08T23:16:30.000,360.0,100,2,-7.467,-5.472,1.907,7.526,7.528,1.287,-1.159,-0.634,1.437,1.472,-2.296,-1.29,2.419,2.456,3.447
JMA,41302,土浦市常名,36.1041,140.1894,,2025-12-08T23:16:10.000,420.0,100,3,7.941,7.651,-4.685,10.246,10.263,1.547,-1.383,-0.944,1.886,1.887,0.64,0.84,1.096,0.86,1.35
JMA,41303,日光市瀬川,36.7346,139.6882,,2025-12-08T23:16:40.000,120.0,100,1,-2.519,-2.656,-1.059,2.693,2.693,0.307,0.526,0.218,0.526,0.526,6.434,10.32,5.9,12.161,13.516
JMA,41304,栃木市旭町,36.3772,139.7363,,2025-12-08T23:17:20.000,120.0,100,2,3.543,2.922,1.472,4.106,4.107,-0.452,-0.606,0.268,0.619,0.62,7.414,-4.599,7.673,8.721,11.616
JMA,41305,沼田市西倉内町,36.6461,139.0428,,2025-12-08T23:16:20.000,240.0,100,2,2.662,-2.452,-0.944,2.749,2.757,0.618,0.706,0.202,0.794,0.807,-0.329,0.539,0.193,0.596,0.607
JMA,41306,富岡市七日市,36.2639,138.8803,,2025-12-08T23:17:50.000,120.0,100,1,1.397,-1.741,0.839,2.046,2.059,-0.693,0.714,-0.261,0.981,0.982,4.57,6.124,-0.533,7.641,7.647
JMA,41307,桐生市錦町,36.4042,139.3315,,2025-12-08T23:17:20.000,120.0,100,2,-2.614,3.704,-1.735,4.205,4.205,-0.385,-0.396,-0.183,0.482,0.487,-3.513,2.412,0.737,4.259,4.313
JMA,41308,さいたま浦和区高砂,35.8582,139.6485,,2025-12-08T23:16:30.000,360.0,100,2,4.79,-4.276,-1.657,4.833,4.849,-1.204,1.3,0.585,1.385,1.451,-0.638,2.401,-1.518,2.459,2.783
JMA,41309,川越市旭町,35.9003,139.4731,,2025-12-08T23:16:40.000,240.0,100,2,-3.544,4.331,1.771,4.468,4.514,-0.975,1.269,-0.585,1.287,1.288,-13.634,-10.076,1.429,16.954,17.014
JMA,41310,久喜市下早見,36.0595,139.6669,,2025-12-08T23:16:30.000,360.0,100,2,6.339,-6.994,-1.784,9.115,9.116,-1.274,-1.218,0.625,1.522,1.559,-1.928,3.295,13.074,3.567,13.552
JMA,41311,柏市旭町,35.86,139.9587,,2025-12-08T23:16:30.000,360.0,100,2,4.468,7.188,-1.734,7.256,7.27,1.063,-0.833,0.365,1.122,1.124,-1.884,1.356,-1.748,2.044,2.666
JMA,41312,成田市名古屋,35.8633,140.3619,,2025-12-08T23:16:20.000,420.0,100,2,5.233,3.352,2.181,5.234,5.383,-0.95,0.745,0.42,1.011,1.015,0.764,1.019,-0.259,1.09,1.108
JMA,41313,香取市佐原平田,35.8864,140.5066,,2025-12-08T23:16:30.000,360.0,100,2,6.68,-5.245,-3.889,6.901,7.052,1.047,1.209,0.51,1.209,1.211,-0.852,-4.579,-5.685,4.609,7.318
JMA,41314,木更津市太田,35.3786,139.9448,,2025-12-08T23:17:50.000,240.0,100,2,3.626,3.746,1.834,3.79,3.876,0.936,-0.874,0.498,1.005,1.006,-6.089,-13.283,-4.587,14.611,15.313
JMA,41315,東金市東新宿,35.5607,140.3681,,2025-12-08T23:16:40.000,360.0,100,2,4.003,-3.444,-1.395,4.005,4.025,-0.803,0.866,-0.405,0.988,0.999,-7.649,-9.677,4.113,12.335,13.003
JMA,41316,鴨川市八色,35.114,140.0982,,2025-12-08T23:18:00.000,120.0,100,2,-2.112,2.781,0.798,2.785,2.785,0.381,-0.58,0.253,0.581,0.584,1.107,-1.552,-1.691,1.687,2.387
JMA,41317,東京江戸川区中央,35.7071,139.8687,,2025-12-08T23:16:40.000,360.0,100,3,-7.051,7.629,-2.424,8.424,8.425,1.477,1.39,-0.474,1.748,1.749,34.076,45.243,-2.385,56.64,56.691
JMA,41318,東京杉並区阿佐谷,35.7,139.6366,,2025-12-08T23:17:40.000,240.0,100,2,-3.075,-2.718,1.476,3.465,3.523,-1.24,-0.944,0.513,1.442,1.443,7.264,2.667,-8.919,7.725,11.799
JMA,41319,国分寺市並木町,35.7152,139.4502,,2025-12-08T23:17:40.000,180.0,100,2,-2.661,-3.168,1.367,3.364,3.411,0.734,-0.883,-0.446,0.968,0.997,-5.654,17.645,2.67,18.524,18.715
JMA,41320,八王子市大横町,35.6645,139.3272,,2025-12-08T23:17:40.000,240.0,100,1,1.983,1.591,-0.947,2.401,2.413,0.416,0.296,-0.195,0.47,0.475,-2.364,-1.646,0.514,2.88,2.921
JMA,41321,青梅市東青梅,35.788,139.2751,,2025-12-08T23:17:50.000,60.0,100,1,1.085,-0.951,-0.528,1.308,1.31,0.27,-0.309,-0.152,0.405,0.422,3.657,-4.451,-1.767,5.755,6.019
JMA,41322,川崎中原区小杉陣屋町,35.5869,139.6551,,2025-12-08T23:17:30.000,360.0,100,2,3.072,-4.131,1.406,4.545,4.59,-0.723,-0.791,-0.353,0.907,0.91,16.166,-22.156,7.184,27.426,28.351
JMA,41324,秦野市曽屋,35.3799,139.2109,,2025-12-08T23:17:40.000,120.0,100,1,1.666,-2.117,-1.025,2.203,2.208,-0.359,-0.327,0.232,0.373,0.378,-4.674,1.984,-0.287,5.076,5.082
JMA,41325,茅ヶ崎市茅ヶ崎,35.3344,139.4032,,2025-12-08T23:17:40.000,180.0,100,2,2.89,3.899,-1.147,3.913,3.929,-0.62,0.715,0.243,0.721,0.721,-0.453,-6.444,-4.098,6.458,7.646
JMA,41326,村上市塩町,38.2286,139.4746,,2025-12-08T23:16:20.000,300.0,100,1,1.519,1.949,0.948,1.991,1.991,-0.421,0.507,0.344,0.548,0.551,-0.803,1.167,24.642,1.409,24.682
JMA,41327,新潟秋葉区程島,37.7877,139.1121,,2025-12-08T23:17:10.000,240.0,100,2,3.559,3.616,1.215,3.814,3.892,-0.883,-0.962,0.437,1.008,1.008,-12.24,22.247,-11.054,25.375,27.675
JMA,41328,長岡市幸町,37.4357,138.8407,,2025-12-08T23:17:20.000,120.0,100,1,1.158,-1.003,1.081,1.224,1.393,-0.693,-0.441,0.377,0.693,0.695,0.909,5.948,-0.605,5.997,6.006
JMA,41329,糸魚川市一の宮,37.0388,137.8633,,2025-12-08T23:18:20.000,60.0,100,1,0.684,-0.792,-0.365,0.834,0.835,-0.369,0.244,-0.188,0.373,0.387,-1.151,2.1,-1.2,2.243,2.47
JMA,41330,小千谷市城内,37.3125,138.7927,,2025-12-08T23:17:20.000,180.0,100,1,1.612,-1.262,0.849,1.617,1.629,0.59,0.472,-0.35,0.623,0.624,-2.816,-8.865,7.747,9.215,12.034
JMA,41338,甲州市塩山下於曽,35.7003,138.7213,,2025-12-08T23:17:50.000,240.0,100,1,1.63,2.343,-0.972,2.374,2.38,0.288,-0.411,0.181,0.412,0.417,-11.668,-0.989,-1.34,11.709,11.785
JMA,41340,上田市築地,36.3992,138.2081,,2025-12-08T23:18:00.000,120.0,100,1,1.286,-0.847,0.455,1.408,1.408,-0.304,-0.286,0.123,0.379,0.387,6.473,5.854,-0.171,8.727,8.727
JMA,41343,御殿場市萩原,35.3102,138.9304,,2025-12-08T23:17:50.000,180.0,100,2,3.733,-3.28,1.94,3.796,3.847,0.813,-0.812,0.362,0.902,0.905,-1.413,-7.415,0.845,7.545,7.59
JMA,41346,富士宮市弓沢町,35.2232,138.621,,2025-12-08T23:18:00.000,120.0,100,1,1.791,1.783,0.956,1.902,1.912,0.48,0.494,-0.203,0.649,0.65,5.456,-3.256,-2.278,6.35,6.745
JMA,41347,静岡清水区千歳町,35.0168,138.4848,,2025-12-08T23:18:10.000,120.0,100,2,1.654,2.335,0.534,2.357,2.367,-0.327,-0.47,-0.207,0.537,0.552,-0.173,1.842,-1.217,1.846,2.211
JMA,42101,石狩市花川,43.1714,141.3157,,2025-12-08T23:15:40.000,420.0,100,4,27.139,27.849,-8.744,29.47,29.547,8.972,-5.272,2.135,8.983,9.025,-3.645,2.28,-1.202,3.742,3.743
JMA,42102,岩内町高台,42.98,140.515,,2025-12-08T23:15:40.000,300.0,100,3,10.015,-7.41,5.956,11.682,11.689,-2.332,1.529,-1.4,2.379,2.39,-1.389,1.057,0.902,1.397,1.401
JMA,42103,余市町朝日町,43.1952,140.7835,,2025-12-08T23:15:40.000,300.0,100,3,10.922,-11.54,7.659,12.583,12.852,2.127,1.741,-1.257,2.325,2.341,-0.892,-0.847,-0.524,1.064,1.094
JMA,42104,上富良野町大町,43.4557,142.467,,2025-12-08T23:15:40.000,300.0,100,3,13.719,18.888,-6.79,19.926,19.933,2.033,1.816,1.305,2.212,2.235,0.746,-0.895,0.865,0.91,1.023
JMA,42105,美幌町東３条,43.8161,144.1033,,2025-12-08T23:15:50.000,360.0,100,3,14.792,-16.734,-6.937,17.39,17.42,-2.144,-2.67,0.91,2.69,2.691,0.796,0.948,0.374,0.97,0.986
JMA,42106,斜里町本町,43.9114,144.6711,,2025-12-08T23:16:00.000,420.0,100,3,-10.128,9.179,-4.438,10.737,10.753,-2.172,-1.931,0.885,2.297,2.32,-0.994,0.95,-0.721,1.233,1.331
JMA,42107,北見市留辺蘂町温根湯温泉,43.7585,143.5093,,2025-12-08T23:15:40.000,240.0,100,2,-12.884,-14.892,4.552,15.332,15.465,1.094,0.86,-0.463,1.126,1.141,-0.463,-0.504,0.3,0.533,0.544
JMA,42108,十勝清水町南４条,43.0115,142.8845,,2025-12-08T23:15:30.000,420.0,100,4,50.769,-39.952,24.242,59.217,61.134,-5.036,4.821,2.785,5.339,5.826,-1.535,1.596,1.304,1.652,1.99
JMA,42109,本別町北２丁目,43.1246,143.6111,,2025-12-08T23:15:40.000,360.0,100,3,-27.705,-30.891,-54.491,39.677,55.288,2.325,-2.34,1.95,2.469,2.49,1.814,-1.807,-6.519,2.365,6.884
JMA,42110,弟子屈町美里,43.4809,144.4366,,2025-12-08T23:15:40.000,420.0,100,3,-13.508,-12.455,8.96,14.848,15.084,2.122,-1.691,-0.757,2.14,2.141,0.945,0.642,-0.298,0.993,0.999
JMA,42111,別海町常盤,43.3946,145.118,,2025-12-08T23:15:50.000,420.0,100,3,27.207,-34.973,13.096,37.135,37.144,-2.17,2.591,-1.07,2.856,2.856,-1.673,1.397,0.476,1.676,1.676
JMA,42112,白老町竹浦,42.4928,141.2548,,2025-12-08T23:15:30.000,300.0,100,5弱,120.353,110.91,-32.197,120.361,120.779,-8.897,10.663,-2.951,10.675,10.68,-2.766,2.427,-1.135,2.931,2.933
JMA,42113,新ひだか町静内山手町,42.3448,142.3622,,2025-12-08T23:15:20.000,420.0,100,5弱,109.075,-112.118,27.273,131.66,131.843,-10.826,10.933,-2.98,12.066,12.136,2.69,-2.698,1.609,2.86,2.986
JMA,42114,渡島松前町福山,41.43,140.1104,,2025-12-08T23:15:30.000,240.0,100,3,12.6,12.961,-7.101,13.466,13.981,-0.732,1.073,-0.914,1.118,1.221,-0.234,0.431,-0.706,0.445,0.761
JMA,42115,七飯町桜町,41.9033,140.688,,2025-12-08T23:15:20.000,300.0,100,4,54.241,67.949,-16.547,69.368,69.547,-4.034,-3.969,1.711,4.169,4.202,-0.825,0.713,0.717,1.014,1.032
JMA,42201,平内町小湊,40.9255,140.9527,,2025-12-08T23:15:10.000,300.0,100,5弱,-189.632,-189.605,102.438,190.992,194.975,-12.427,14.0,-3.565,14.964,14.996,-3.0,2.225,0.94,3.091,3.092
JMA,42202,鰺ヶ沢町舞戸町鳴戸,40.7821,140.2334,,2025-12-08T23:15:20.000,420.0,100,4,-49.174,-45.079,-22.454,57.652,58.113,7.776,-8.296,-5.081,9.106,9.11,-3.29,-3.7,-2.045,3.759,3.778
JMA,42203,六ヶ所村尾駮,40.9669,141.3739,,2025-12-08T23:15:10.000,420.0,100,5弱,-166.959,-130.308,74.665,175.935,177.814,-16.758,-11.048,5.588,16.883,16.917,-7.309,4.164,-2.204,8.07,8.172
JMA,42204,五戸町古舘,40.5313,141.3079,,2025-12-08T23:15:10.000,420.0,100,5強,407.451,-329.395,184.926,435.862,458.665,-35.213,-18.782,-12.519,36.238,36.311,-8.394,7.411,3.882,11.03,11.037
JMA,42206,八幡平市大更,39.9263,141.0951,,2025-12-08T23:15:20.000,300.0,100,4,-64.524,-111.876,35.643,116.581,116.944,7.467,-7.664,-3.303,8.969,9.028,2.141,2.019,0.833,2.551,2.574
JMA,42207,一関市大東町,39.0171,141.3956,,2025-12-08T23:15:30.000,300.0,100,3,-28.949,-42.331,12.167,43.48,44.266,1.135,-1.845,-0.771,2.164,2.172,-0.309,-0.7,0.219,0.724,0.732
JMA,42208,山田町八幡町,39.4676,141.9492,,2025-12-08T23:15:20.000,300.0,100,4,52.44,30.515,21.781,54.207,54.516,2.261,2.329,1.103,2.738,2.74,0.263,0.983,0.682,0.984,1.081
JMA,42209,岩手洋野町種市,40.4083,141.7185,,2025-12-08T23:15:10.000,360.0,100,4,98.117,-105.481,-73.159,105.487,106.242,-4.865,5.761,-2.299,7.468,7.525,-1.4,-2.076,0.897,2.197,2.359
JMA,42210,柴田町船岡,38.0547,140.7626,,2025-12-08T23:15:50.000,240.0,100,2,-8.5,8.56,-2.895,10.543,10.549,-0.618,-1.064,0.497,1.075,1.079,-0.229,0.445,0.205,0.465,0.505
JMA,42211,松島町高城,38.3853,141.0691,,2025-12-08T23:15:40.000,300.0,100,4,-28.579,35.53,8.747,35.556,35.606,3.308,-4.387,0.893,4.407,4.461,0.397,-0.795,-0.338,0.797,0.802
JMA,42212,涌谷町新町裏,38.5401,141.1272,,2025-12-08T23:15:40.000,300.0,100,4,-60.596,-51.747,-18.738,67.025,67.025,-6.675,6.904,1.61,7.973,7.974,1.52,1.203,-0.443,1.627,1.631
JMA,42213,登米市中田町,38.7103,141.2357,,2025-12-08T23:15:40.000,300.0,100,4,-41.697,43.69,22.383,46.858,48.286,-5.039,5.069,-2.036,6.139,6.139,-1.098,-1.312,0.574,1.333,1.371
JMA,42215,南三陸町志津川,38.6784,141.461,,2025-12-08T23:15:40.000,240.0,100,2,15.732,11.388,-6.572,15.841,15.875,0.905,0.942,-0.576,0.957,1.005,0.242,0.474,0.267,0.519,0.521
JMA,42216,北秋田市花園町,40.226,140.3707,,2025-12-08T23:15:20.000,300.0,100,3,20.736,28.943,-7.416,30.272,30.29,-3.261,2.662,1.093,3.742,3.756,-1.346,-1.012,0.329,1.51,1.523
JMA,42217,五城目町西磯ノ目,39.9438,140.1111,,2025-12-08T23:15:30.000,300.0,100,3,-12.864,-12.731,-5.006,13.611,13.699,2.067,-2.452,-1.043,2.494,2.494,1.353,0.938,0.433,1.452,1.457
JMA,42218,仙北市角館町中菅沢,39.5902,140.5671,,2025-12-08T23:15:30.000,240.0,100,3,12.574,11.973,6.307,13.132,13.141,-1.952,-1.562,-0.881,1.952,1.952,-0.599,0.681,0.245,0.835,0.835
JMA,42219,横手市雄物川町今宿,39.2912,140.4296,,2025-12-08T23:15:30.000,300.0,100,3,21.979,-17.703,7.236,23.664,23.742,2.52,-2.36,-0.858,3.426,3.429,1.031,-0.655,0.329,1.191,1.191
JMA,42220,河北町西里,38.4144,140.2804,,2025-12-08T23:15:50.000,300.0,100,3,-5.069,-8.992,3.788,9.022,9.068,1.411,1.939,0.923,2.058,2.098,-0.759,1.108,-0.437,1.162,1.181
JMA,42221,山形小国町岩井沢,38.0562,139.7478,,2025-12-08T23:16:00.000,300.0,100,2,5.044,6.21,-2.934,6.686,6.719,0.976,1.107,-0.486,1.147,1.234,0.339,-0.476,0.249,0.584,0.586
JMA,42222,遊佐町遊佐,39.012,139.9086,,2025-12-08T23:15:50.000,300.0,100,3,15.389,-11.171,4.145,18.039,18.086,4.094,-4.152,-1.12,4.391,4.392,2.331,-2.38,0.616,2.384,2.387
JMA,42223,南会津町田島,37.2002,139.7732,,2025-12-08T23:16:20.000,240.0,100,2,2.326,-2.733,-1.01,3.159,3.181,0.343,0.441,-0.233,0.465,0.465,-3.738,-3.773,0.505,5.311,5.334
JMA,42224,西会津町野沢,37.5871,139.6487,,2025-12-08T23:16:10.000,300.0,100,2,-3.371,3.158,-1.484,3.476,3.495,0.675,-0.777,0.364,0.794,0.795,-0.312,0.374,0.183,0.445,0.458
JMA,42225,猪苗代町城南,37.5589,140.1049,,2025-12-08T23:16:10.000,300.0,100,2,-7.464,6.212,-2.719,7.779,8.145,-1.599,-1.677,-0.718,1.764,1.778,0.923,-0.881,-0.638,0.967,1.041
JMA,42226,棚倉町棚倉中居野,37.0292,140.3802,,2025-12-08T23:16:00.000,240.0,100,2,-5.886,-7.521,3.047,8.251,8.272,-0.713,0.638,0.431,0.714,0.714,0.38,-0.267,0.132,0.427,0.437
JMA,42227,田村市船引町,37.4401,140.5765,,2025-12-08T23:16:00.000,240.0,100,2,-7.904,-7.078,-1.501,8.453,8.455,-0.497,0.517,0.284,0.651,0.675,0.347,-0.232,-0.12,0.402,0.402
JMA,42228,浪江町幾世橋,37.4945,140.9997,,2025-12-08T23:15:50.000,300.0,100,3,15.171,-14.466,6.016,18.447,18.544,-2.167,2.112,-1.185,2.342,2.431,-0.709,-0.702,-0.489,0.767,0.877
JMA,42301,茨城鹿嶋市鉢形,35.9665,140.6464,,2025-12-08T23:16:20.000,300.0,100,2,4.896,6.785,-2.174,6.929,6.93,-0.926,-1.476,-0.403,1.48,1.491,0.619,0.64,-0.386,0.835,0.919
JMA,42302,常陸大宮市中富町,36.5427,140.4109,,2025-12-08T23:16:30.000,240.0,100,2,-8.437,5.502,-3.807,8.985,8.986,-1.427,-0.883,-0.673,1.556,1.593,15.849,7.176,12.454,17.397,21.395
JMA,42303,鉾田市鉾田,36.1586,140.5166,,2025-12-08T23:16:20.000,300.0,100,2,-5.292,-4.529,-2.505,5.537,5.537,1.253,-1.067,0.394,1.286,1.287,-0.373,0.377,0.11,0.438,0.439
JMA,42304,筑西市舟生,36.2509,139.9321,,2025-12-08T23:16:20.000,300.0,100,3,11.208,14.355,3.648,14.386,14.387,-2.319,1.784,0.757,2.467,2.474,1.365,0.872,0.395,1.575,1.575
JMA,42305,利根町布川,35.8578,140.1391,,2025-12-08T23:16:40.000,360.0,100,2,-4.452,5.12,-2.464,5.167,5.21,-1.045,-1.015,0.625,1.166,1.167,30.185,-24.274,-23.701,38.735,45.41
JMA,42306,益子町益子,36.4675,140.0931,,2025-12-08T23:16:30.000,120.0,100,2,-2.952,3.58,-0.959,3.788,3.798,0.344,0.412,0.23,0.429,0.435,-6.041,-1.152,0.287,6.15,6.155
JMA,42307,那須烏山市神長,36.6591,140.1333,,2025-12-08T23:16:50.000,300.0,100,2,3.493,3.905,2.718,4.002,4.133,-0.641,-0.518,0.375,0.663,0.664,8.369,7.997,-16.767,11.576,20.367
JMA,42308,大田原市黒羽田町,36.8633,140.1216,,2025-12-08T23:16:20.000,180.0,100,2,2.341,-3.038,1.862,3.039,3.04,-0.478,-0.378,-0.294,0.508,0.509,1.813,2.478,2.136,3.071,3.739
JMA,42309,東吾妻町原町,36.5714,138.8212,,2025-12-08T23:17:30.000,60.0,100,1,0.723,0.664,0.389,0.724,0.76,-0.271,-0.326,-0.132,0.336,0.336,-0.554,-0.978,1.341,1.12,1.747
JMA,42310,板倉町板倉,36.2249,139.6015,,2025-12-08T23:16:30.000,300.0,100,2,-6.406,6.849,-2.619,6.964,7.029,1.566,1.471,0.57,1.584,1.626,5.326,3.296,-8.916,6.263,10.895
JMA,42311,鳩山町大豆戸,35.9814,139.3341,,2025-12-08T23:17:30.000,120.0,100,2,2.211,3.636,2.103,3.669,4.223,0.828,0.935,0.507,0.942,0.956,-2.003,1.372,-4.997,2.411,5.537
JMA,42312,本庄市児玉町,36.1907,139.1279,,2025-12-08T23:16:30.000,180.0,100,2,3.837,-4.495,-1.648,4.608,4.723,1.06,-1.074,-0.444,1.299,1.3,-0.443,-0.493,0.307,0.594,0.595
JMA,42313,多古町多古,35.7354,140.4675,,2025-12-08T23:16:40.000,420.0,100,2,-4.39,-4.225,1.732,5.355,5.377,-0.778,-0.72,0.326,0.857,0.857,-28.775,6.506,-17.955,29.501,34.536
JMA,42314,一宮町一宮,35.3718,140.3684,,2025-12-08T23:17:40.000,240.0,100,2,-2.354,-2.806,-1.144,3.043,3.097,-0.56,0.637,-0.314,0.76,0.76,7.508,-2.616,-8.818,7.937,11.862
JMA,42315,湯河原町中央,35.1479,139.1082,,2025-12-08T23:17:10.000,180.0,100,2,4.658,-3.602,-1.136,4.671,4.686,0.395,0.449,0.212,0.452,0.457,-8.56,4.154,5.846,9.515,11.164
JMA,42316,胎内市新和町,38.0596,139.4102,,2025-12-08T23:16:20.000,240.0,100,2,2.773,-2.52,-2.028,2.944,3.015,0.879,-0.925,-0.68,1.151,1.194,11.268,-6.76,1.923,13.131,13.271
JMA,42317,五泉市村松乙,37.6934,139.1743,,2025-12-08T23:17:00.000,180.0,100,1,1.618,1.825,-1.313,1.935,1.984,-0.634,0.592,-0.368,0.813,0.872,-0.818,-4.952,1.065,4.959,5.067
JMA,42318,新潟西蒲区役所,37.7607,138.8894,,2025-12-08T23:17:00.000,300.0,100,2,3.513,-3.034,-1.272,3.566,3.58,-1.116,1.43,-0.543,1.435,1.453,-24.241,2.14,7.354,24.327,25.413
JMA,42319,南魚沼市六日町,37.0656,138.876,,2025-12-08T23:16:20.000,300.0,100,2,-4.578,4.965,-0.549,5.055,5.056,-0.766,1.053,0.128,1.053,1.053,0.29,0.247,-0.114,0.317,0.322
JMA,42325,能登町宇出津,37.3109,137.1473,,2025-12-08T23:16:40.000,60.0,100,1,0.999,0.804,0.271,1.021,1.025,0.176,-0.112,-0.052,0.202,0.204,1.597,-1.61,-0.453,2.267,2.311
JMA,42328,上野原市四方津,35.6134,139.0815,,2025-12-08T23:17:50.000,180.0,100,1,1.07,1.086,-0.66,1.264,1.322,0.232,0.258,0.135,0.286,0.287,-1.052,2.949,0.926,3.13,3.262
JMA,42331,飯島町飯島,35.6767,137.9195,,2025-12-08T23:18:10.000,120.0,100,1,-1.07,-0.981,-0.746,1.394,1.401,0.226,-0.396,0.166,0.407,0.409,-1.101,7.476,0.129,7.553,7.554
JMA,42338,伊東市大原,34.9654,139.102,,2025-12-08T23:18:10.000,180.0,100,1,1.037,1.183,-0.485,1.411,1.414,0.27,0.236,0.104,0.27,0.274,-9.292,0.663,3.946,9.311,10.112
JMA,47001,浜中町湯沸,43.0828,145.1608,,2025-12-08T23:15:50.000,240.0,100,2,14.153,15.446,-4.268,16.602,16.777,0.954,1.181,0.549,1.389,1.391,0.707,0.912,0.391,0.913,0.925
JMA,47002,広尾町白樺通,42.2913,143.2988,,2025-12-08T23:15:20.000,300.0,100,3,-38.718,37.448,18.447,44.018,44.054,-2.821,2.242,-1.415,3.306,3.448,-0.546,1.027,-0.455,1.028,1.047
JMA,47003,新ひだか町静内御園,42.4099,142.4667,,2025-12-08T23:15:20.000,360.0,100,4,-41.082,-45.494,-28.362,48.828,50.406,-6.764,6.204,4.474,6.809,6.809,2.649,2.842,-1.164,3.056,3.079
JMA,47004,厚真町鹿沼,42.6226,141.9204,,2025-12-08T23:15:30.000,360.0,100,5弱,-161.791,261.56,-32.467,268.136,268.427,-18.437,-19.149,3.108,19.942,19.962,4.507,3.798,1.506,4.507,4.531
JMA,47005,石狩市聚富,43.2753,141.4175,,2025-12-08T23:15:40.000,360.0,100,3,37.601,33.098,12.168,44.517,44.671,-3.161,-2.562,1.613,3.179,3.186,-1.424,-1.236,0.807,1.621,1.65
JMA,47006,せたな町北檜山区豊岡,42.4225,139.8767,,2025-12-08T23:15:40.000,240.0,100,2,6.403,-7.484,3.427,7.848,7.918,0.746,-0.866,0.438,0.909,0.924,0.349,-0.373,-0.288,0.463,0.466
JMA,47007,東通村砂子又蒲谷地,41.2653,141.3374,,2025-12-08T23:15:10.000,360.0,100,5弱,186.788,162.272,-109.064,189.895,192.703,16.211,12.191,9.411,16.28,16.771,-3.114,1.811,1.246,3.43,3.497
JMA,47008,六ヶ所村出戸,41.0073,141.3664,,2025-12-08T23:15:10.000,300.0,100,4,127.999,125.332,-47.593,129.929,130.421,-10.824,-8.263,3.575,10.925,11.495,-4.121,1.905,1.357,4.284,4.462
JMA,47009,弘前市弥生,40.6519,140.359,,2025-12-08T23:15:20.000,360.0,100,3,27.653,38.239,-12.383,38.803,39.489,6.306,3.579,-2.573,6.312,6.448,-3.212,-1.879,-1.475,3.215,3.218
JMA,47010,久慈市枝成沢,40.2056,141.7098,,2025-12-08T23:15:10.000,360.0,100,5弱,227.729,129.084,-42.396,227.73,228.079,9.554,-7.744,-2.598,9.672,9.693,-1.31,1.55,-0.712,2.006,2.027
JMA,47011,雫石町西根上駒木野,39.7415,140.9527,,2025-12-08T23:15:30.000,300.0,100,3,-25.082,-23.874,-15.198,28.783,28.834,-3.213,3.12,-1.642,4.049,4.07,-1.841,1.224,-0.682,2.081,2.082
JMA,47012,気仙沼市本吉町西川内,38.8108,141.4738,,2025-12-08T23:15:40.000,240.0,100,3,14.265,-21.116,10.13,21.127,21.876,0.787,1.423,-0.953,1.468,1.469,-0.293,0.472,-0.34,0.539,0.54
JMA,47013,大崎市古川大崎,38.6022,140.9112,,2025-12-08T23:15:40.000,360.0,100,3,19.219,-17.575,7.855,20.613,21.132,2.953,3.299,1.719,3.561,3.639,-1.122,-1.264,0.613,1.325,1.334
JMA,47016,遊佐町小原田,39.0162,139.9306,,2025-12-08T23:16:00.000,300.0,100,3,-5.989,5.285,4.803,6.779,6.78,1.934,-2.975,-1.292,3.453,3.481,1.832,4.988,-12.722,4.99,13.63
JMA,47017,米沢市アルカディア,37.9127,140.1436,,2025-12-08T23:16:00.000,300.0,100,3,10.077,7.599,3.36,10.078,10.182,-1.475,1.37,-0.405,1.48,1.48,-1.12,-0.68,-0.145,1.201,1.202
JMA,47018,古殿町松川横川,37.0909,140.5611,,2025-12-08T23:16:10.000,180.0,100,1,2.653,2.553,2.077,3.141,3.416,0.264,0.341,-0.404,0.354,0.426,-0.126,-0.145,-0.217,0.159,0.218
JMA,47019,ひたちなか市山ノ上町,36.3405,140.5868,,2025-12-08T23:17:20.000,180.0,100,2,-2.777,2.413,-1.111,3.108,3.218,0.534,0.605,0.2,0.791,0.8,21.951,26.028,-4.96,34.047,34.406
JMA,47020,潮来市堀之内,35.9659,140.5259,,2025-12-08T23:16:30.000,360.0,100,2,-5.199,-6.438,-3.049,6.988,6.998,1.245,1.249,-0.74,1.318,1.404,-6.725,-2.292,-1.124,7.104,7.189
JMA,47021,山武市松尾町富士見台,35.6426,140.4483,,2025-12-08T23:17:20.000,360.0,100,2,-4.315,4.007,1.471,4.475,4.501,1.111,0.778,-0.496,1.233,1.248,-17.325,19.275,18.274,25.913,31.709
JMA,47022,鴨川市内浦,35.16,140.1991,,2025-12-08T23:18:00.000,180.0,100,1,-1.355,1.336,0.644,1.528,1.528,-0.334,-0.415,0.19,0.419,0.427,1.085,3.514,-2.903,3.656,4.668
JMA,47023,東京利島村東山,34.5236,139.2883,,2025-12-08T23:18:30.000,120.0,100,1,0.962,0.921,-0.341,1.004,1.01,-0.25,-0.289,0.092,0.305,0.306,2.739,-8.488,-0.321,8.91,8.916
JMA,47027,伊豆市中伊豆グラウンド,34.9588,139.0087,,2025-12-08T23:16:40.000,240.0,100,1,2.142,-2.307,-0.92,2.501,2.518,0.393,0.411,-0.148,0.494,0.504,-0.142,-0.409,0.128,0.413,0.432
JMA,47041,標津町古多糠,43.7756,145.0046,,2025-12-08T23:16:00.000,300.0,100,3,-9.435,8.689,6.676,12.043,12.227,1.316,-0.919,0.864,1.358,1.462,0.684,0.592,-0.234,0.904,0.911
JMA,47042,渡島松前町清部,41.5248,140.0069,,2025-12-08T23:15:30.000,240.0,100,2,9.858,-7.972,4.175,10.209,10.234,-0.615,0.869,0.78,0.979,1.178,0.337,0.383,0.43,0.402,0.478
JMA,47044,南相馬市鹿島区栃窪,37.7246,140.8874,,2025-12-08T23:16:00.000,240.0,100,2,6.851,-6.89,2.94,7.712,7.73,0.829,-0.951,0.52,1.252,1.252,-0.324,-0.455,0.222,0.501,0.506
JMA,47051,千葉美浜区ひび野,35.6438,140.0402,,2025-12-08T23:16:30.000,420.0,100,2,-5.983,-6.476,1.591,7.129,7.144,1.529,1.084,0.443,1.603,1.604,-0.653,0.931,0.312,0.944,0.945
JMA,47052,浦安市日の出,35.6442,139.924,,2025-12-08T23:16:40.000,420.0,100,3,11.031,9.745,2.006,11.204,11.317,2.469,-1.88,-0.539,2.514,2.517,7.611,-11.08,9.289,13.441,16.338
JMA,47053,東京墨田区横川,35.7039,139.815,,2025-12-08T23:17:10.000,300.0,100,2,5.369,-3.864,1.352,5.377,5.397,1.058,0.772,0.548,1.068,1.069,18.633,15.654,-2.58,24.331,24.466
JMA,47054,東京江東区青海,35.6168,139.7812,,2025-12-08T23:17:30.000,300.0,100,2,6.448,-4.853,-1.79,6.869,6.902,1.069,-1.06,-0.378,1.106,1.107,3.601,-0.508,-3.247,3.603,4.85
JMA,47055,東京新宿区西新宿,35.6907,139.6953,,2025-12-08T23:17:30.000,300.0,100,2,-3.18,-3.955,1.514,4.354,4.372,-1.129,-0.973,0.54,1.133,1.144,11.311,3.202,-5.221,11.755,12.862
JMA,47056,東京港区海岸,35.6389,139.7529,,2025-12-08T23:17:30.000,300.0,100,2,-4.047,3.996,1.166,4.323,4.323,-0.917,-0.779,-0.323,0.919,0.919,-5.17,8.179,3.979,9.671,10.455
JMA,47057,横浜鶴見区大黒ふ頭,35.4608,139.6733,,2025-12-08T23:17:20.000,360.0,100,-,5.134,4.119,-1.932,5.134,5.146,-1.461,-1.277,0.636,1.558,1.558,9.162,1.003,3.515,9.179,9.821
JMA,47201,稚内市恵北,45.3183,141.8934,,2025-12-08T23:17:20.000,180.0,100,1,1.032,-1.085,0.94,1.255,1.298,-0.531,-0.587,-0.379,0.627,0.673,-7.47,2.86,-1.457,7.975,8.086
JMA,47202,宗谷枝幸町岬町,44.9614,142.5798,,2025-12-08T23:16:50.000,180.0,100,1,1.327,-1.638,0.979,1.761,1.78,-0.408,-0.448,-0.404,0.456,0.518,4.514,0.384,10.358,4.521,11.302
JMA,47203,初山別村有明,44.4017,141.8493,,2025-12-08T23:16:10.000,240.0,100,2,-4.314,-5.122,-2.745,5.233,5.242,-1.118,-1.508,1.019,1.518,1.518,12.344,-1.047,-0.768,12.355,12.355
JMA,47204,北竜町竜西,43.7454,141.7212,,2025-12-08T23:15:40.000,300.0,100,3,-16.901,17.384,7.411,17.869,18.517,1.74,2.509,1.229,2.516,2.543,-0.753,-1.248,-0.703,1.263,1.316
JMA,47205,士別市朝日町,44.1189,142.5933,,2025-12-08T23:16:10.000,180.0,100,2,-2.677,3.559,2.765,3.559,3.822,1.019,0.854,-0.677,1.02,1.134,13.638,5.077,4.942,14.552,15.365
JMA,47206,上川地方上川町越路,43.8763,142.7437,,2025-12-08T23:15:50.000,240.0,100,2,6.351,-5.206,-2.559,6.395,6.478,1.015,-0.731,-0.683,1.121,1.159,0.375,0.378,0.448,0.438,0.531
JMA,47207,南富良野町幾寅,43.1664,142.5903,,2025-12-08T23:15:40.000,240.0,100,3,-17.002,17.693,10.796,17.698,18.094,1.742,2.077,1.924,2.129,2.248,-0.488,-0.474,-0.668,0.68,0.763
JMA,47208,遠軽町丸瀬布金湧山,44.0092,143.3559,,2025-12-08T23:15:50.000,240.0,100,2,7.269,5.938,-4.044,7.967,7.968,-1.047,-0.762,-0.651,1.218,1.243,-0.292,0.352,-0.219,0.352,0.374
JMA,47209,恵庭市漁平,42.8435,141.4459,,2025-12-08T23:15:30.000,300.0,100,4,-23.318,31.482,22.037,34.34,36.857,5.023,6.596,3.055,7.658,7.913,-2.331,-2.064,-1.594,3.037,3.346
JMA,47210,積丹町日司町,43.3549,140.4723,,2025-12-08T23:15:50.000,180.0,100,1,2.609,2.573,1.65,2.655,2.75,0.616,0.506,-0.423,0.676,0.681,-0.44,-0.435,-0.363,0.517,0.54
JMA,47211,島牧村江ノ島,42.6455,140.0412,,2025-12-08T23:15:40.000,180.0,100,2,9.766,8.1,-2.191,10.22,10.256,-0.379,-0.481,-0.281,0.522,0.523,-0.285,-0.285,0.298,0.298,0.333
JMA,47212,八雲町上の湯,42.1193,140.3662,,2025-12-08T23:15:30.000,240.0,100,2,-12.775,10.675,6.397,13.691,13.846,0.972,0.849,-0.87,1.203,1.23,0.46,-0.409,0.54,0.489,0.574
JMA,47215,登別市鉱山,42.4709,141.0346,,2025-12-08T23:15:30.000,300.0,100,4,-96.289,-100.661,16.61,103.931,103.932,2.638,-2.521,-0.893,2.647,2.657,-0.335,0.691,-0.506,0.711,0.85
JMA,47216,平取町仁世宇,42.7811,142.3599,,2025-12-08T23:15:30.000,240.0,100,3,-15.399,-20.355,-9.535,20.582,20.64,1.731,2.027,-1.545,2.241,2.246,1.371,-1.322,0.694,1.416,1.418
JMA,47217,えりも町本町,42.0174,143.1533,,2025-12-08T23:15:20.000,240.0,100,3,17.118,16.267,-13.158,19.044,19.602,-1.871,-1.91,-1.454,2.37,2.37,0.847,-1.007,0.633,1.057,1.067
JMA,47218,足寄町上螺湾,43.2993,143.7656,,2025-12-08T23:15:40.000,300.0,100,3,-20.237,24.276,8.158,26.305,26.334,1.408,-1.275,0.761,1.724,1.725,0.378,0.542,-0.383,0.554,0.555
JMA,47219,幕別町忠類明和,42.6176,143.3604,,2025-12-08T23:15:30.000,240.0,100,3,-13.831,-15.41,-10.087,17.799,17.845,-1.835,-1.74,-1.123,1.929,1.985,0.596,0.817,0.327,0.866,0.868
JMA,47221,中標津町養老牛,43.5875,144.7151,,2025-12-08T23:15:50.000,240.0,100,2,20.735,-23.302,5.807,23.89,24.08,0.64,0.656,0.224,0.668,0.673,0.277,-0.317,-0.267,0.321,0.383
JMA,47222,厚岸町尾幌,42.9972,144.6926,,2025-12-08T23:15:40.000,300.0,100,3,-14.49,-18.941,5.817,18.942,19.239,1.228,-1.412,0.875,1.601,1.619,-0.523,0.51,-0.369,0.644,0.665
JMA,47223,芦別市旭町,43.5068,142.2192,,2025-12-08T23:15:40.000,300.0,100,3,-21.267,20.93,9.771,24.096,24.12,-5.468,2.961,3.093,5.526,5.605,-2.907,-1.144,-2.137,3.014,3.12
JMA,47224,羅臼町春日,43.94,145.1201,,2025-12-08T23:16:00.000,240.0,100,2,5.933,-6.506,3.232,7.585,7.589,0.433,0.502,-0.381,0.561,0.649,-0.252,0.348,0.149,0.35,0.35
JMA,47225,利尻富士町鬼脇,45.14,141.3074,,2025-12-08T23:16:40.000,360.0,100,2,3.036,-3.25,1.518,3.358,3.367,1.933,2.108,0.73,2.182,2.194,20.778,-1.709,2.528,20.787,20.94
JMA,47227,奥尻町松江,42.085,139.4705,,2025-12-08T23:15:40.000,180.0,100,1,3.27,-2.678,-1.762,4.103,4.105,0.437,-0.485,0.376,0.51,0.553,-0.234,0.245,-0.281,0.298,0.332
JMA,47228,むつ市大畑町奥薬研,41.3847,141.0447,,2025-12-08T23:15:10.000,300.0,100,4,148.887,125.428,-52.261,166.326,166.369,-3.459,3.841,1.987,4.009,4.339,0.634,1.141,0.507,1.147,1.148
JMA,47229,五所川原市太田,41.0602,140.4077,,2025-12-08T23:15:20.000,300.0,100,4,30.231,26.821,-12.292,31.734,32.467,-4.047,-5.455,-1.625,5.587,5.647,-1.118,-1.799,0.691,1.962,2.003
JMA,47230,七戸町北天間舘,40.7895,141.0647,,2025-12-08T23:16:10.000,240.0,100,4,-13.464,-10.3,-8.218,14.361,14.369,-3.166,3.687,-4.117,4.86,6.369,-181.417,212.248,-236.627,279.199,365.983
JMA,47231,深浦町長慶平,40.5955,140.0035,,2025-12-08T23:15:30.000,240.0,100,3,11.509,-16.337,-6.041,16.369,16.755,1.426,-1.505,-1.174,1.763,1.895,0.574,1.011,0.698,1.034,1.174
JMA,47232,大館市比内町味噌内,40.1916,140.6326,,2025-12-08T23:15:20.000,300.0,100,3,13.778,14.244,8.219,18.043,18.043,-2.145,1.907,-1.055,2.411,2.424,-1.416,0.983,-0.548,1.582,1.586
JMA,47233,男鹿市男鹿中,39.9195,139.8066,,2025-12-08T23:15:40.000,300.0,100,2,5.143,-4.671,2.063,6.751,6.881,-1.434,0.984,-0.396,1.733,1.741,0.611,0.65,-0.282,0.838,0.848
JMA,47234,秋田美郷町六郷東根,39.3988,140.6297,,2025-12-08T23:15:30.000,300.0,100,3,15.434,-21.632,-9.866,21.657,21.664,1.863,1.837,-1.281,1.97,2.065,-0.589,0.486,0.434,0.75,0.75
JMA,47235,葛巻町葛巻元木,39.9872,141.3259,,2025-12-08T23:15:20.000,300.0,100,4,74.723,-80.181,-28.751,94.246,94.287,-4.362,3.645,-1.924,5.63,5.698,-1.808,1.205,0.867,2.105,2.117
JMA,47236,田野畑村田野畑,39.9416,141.8603,,2025-12-08T23:15:10.000,240.0,100,3,21.627,28.094,-15.282,28.458,28.823,-1.035,1.321,0.753,1.413,1.418,0.322,-0.762,0.375,0.764,0.828
JMA,47238,大船渡市猪川町,39.0833,141.6649,,2025-12-08T23:15:30.000,240.0,100,3,35.47,29.746,-11.236,37.976,38.05,-1.28,-1.675,-0.981,1.785,1.788,0.561,-0.997,-0.281,1.136,1.137
JMA,47240,山形金山町中田,38.9215,140.3562,,2025-12-08T23:16:00.000,240.0,100,2,3.933,-4.155,3.274,4.776,4.786,0.695,-1.291,-0.87,1.3,1.305,18.3,21.071,-49.921,27.908,57.193
JMA,47241,鶴岡市温海川,38.5961,139.7104,,2025-12-08T23:15:50.000,240.0,100,2,5.966,7.174,3.53,7.408,7.462,-0.947,1.039,0.598,1.184,1.202,-0.253,0.467,-0.157,0.481,0.485
JMA,47242,白鷹町黒鴨,38.2243,140.062,,2025-12-08T23:16:00.000,240.0,100,2,5.289,-6.765,-2.686,8.0,8.045,1.113,1.667,0.571,1.677,1.677,0.503,0.653,-0.231,0.763,0.766
JMA,47243,仙台青葉区大倉,38.3679,140.6602,,2025-12-08T23:15:50.000,300.0,100,3,-12.55,10.842,-5.42,12.628,12.834,-0.966,-0.994,0.476,1.099,1.099,0.535,-0.445,0.22,0.649,0.673
JMA,47244,石巻市大瓜,38.4574,141.3457,,2025-12-08T23:15:40.000,240.0,100,2,-10.708,-10.251,-6.313,11.334,11.388,0.65,-0.856,0.516,0.864,0.865,-0.168,-0.316,0.176,0.347,0.374
JMA,47245,丸森町上滝,37.8692,140.7896,,2025-12-08T23:16:00.000,240.0,100,2,-4.544,6.387,-3.247,7.45,7.663,0.871,-1.294,0.512,1.542,1.543,-0.334,-0.535,0.24,0.614,0.614
JMA,47246,川内村下川内,37.3695,140.8712,,2025-12-08T23:17:00.000,180.0,100,2,5.197,-5.923,2.292,6.105,6.121,0.487,-1.933,-0.385,1.977,1.978,-16.719,-82.685,2.654,84.359,84.399
JMA,47247,大玉村南小屋,37.56,140.3338,,2025-12-08T23:16:10.000,240.0,100,2,8.904,-5.448,-4.553,8.993,9.02,-1.256,0.762,-0.703,1.318,1.339,-0.512,-0.348,0.264,0.562,0.563
JMA,47248,柳津町大成沢,37.4096,139.7011,,2025-12-08T23:17:10.000,120.0,100,1,-1.182,1.078,-0.818,1.201,1.207,0.311,0.324,0.274,0.34,0.422,2.058,5.342,-0.138,5.723,5.723
JMA,47249,酒田市飛島,39.1978,139.5531,,2025-12-08T23:16:20.000,180.0,100,2,2.675,2.229,1.226,2.791,2.847,0.955,-0.934,-0.405,1.205,1.218,-14.744,4.807,4.495,15.507,16.145
JMA,47252,阿賀野市畑江,37.8212,139.3142,,2025-12-08T23:17:00.000,120.0,100,1,0.699,-0.799,-0.647,0.841,0.973,-0.245,-0.311,0.165,0.341,0.353,2.648,3.915,-1.351,4.725,4.915
JMA,47253,出雲崎町米田,37.5345,138.7064,,2025-12-08T23:17:10.000,240.0,100,1,1.798,-1.854,-0.907,1.926,2.026,-0.941,-0.791,-0.334,0.949,0.95,-53.964,7.093,1.5,54.428,54.449
JMA,47256,那須塩原市蟇沼,36.9715,139.9164,,2025-12-08T23:17:00.000,240.0,100,2,2.155,2.998,1.651,3.083,3.126,-0.512,-0.709,-0.505,0.725,0.813,-3.233,-12.325,-0.669,12.74,12.757
JMA,47259,常陸太田市町屋町,36.614,140.5653,,2025-12-08T23:17:10.000,120.0,100,1,-3.289,-2.643,-1.548,3.508,3.517,-0.342,1.141,0.281,1.19,1.192,-9.588,32.756,-1.787,34.13,34.177
JMA,47263,長南町総合グラウンド,35.3842,140.2355,,2025-12-08T23:17:50.000,300.0,100,2,-2.523,4.656,-1.554,4.659,4.666,-0.665,1.071,0.378,1.111,1.111,-1.596,16.889,-9.784,16.925,19.549
JMA,47264,横須賀市光の丘,35.2269,139.6629,,2025-12-08T23:17:50.000,180.0,100,2,-2.043,-2.262,-1.181,2.398,2.51,-0.472,-0.468,0.314,0.55,0.571,9.086,0.342,1.922,9.087,9.284
JMA,47268,身延町大磯小磯,35.5009,138.5414,,2025-12-08T23:18:00.000,120.0,100,1,-0.925,-1.228,-0.656,1.228,1.234,-0.205,0.23,0.131,0.239,0.239,-2.117,-4.113,-3.126,4.625,5.577
JMA,47351,八戸市島守,40.3762,141.5117,,2025-12-08T23:15:10.000,300.0,100,4,55.909,60.808,-26.362,73.53,74.95,-7.96,7.361,-2.06,10.287,10.315,-2.093,2.549,-0.417,3.239,3.249
JMA,47352,秋田市雄和女米木,39.5424,140.2053,,2025-12-08T23:15:40.000,360.0,100,3,11.729,10.346,-4.474,11.935,11.95,2.894,-1.816,-1.315,3.035,3.038,1.465,0.788,-0.513,1.54,1.545
JMA,47360,根室市豊里,43.3675,145.7388,,2025-12-08T23:16:20.000,180.0,100,2,-5.364,-4.544,2.243,6.005,6.056,0.372,-0.415,-0.587,0.439,0.649,9.977,6.77,-25.246,12.057,27.977
JMA,47362,北見市常呂町東浜,44.1185,144.0855,,2025-12-08T23:15:50.000,240.0,100,2,-6.409,-7.232,-2.783,7.424,7.429,-0.69,1.064,-0.517,1.064,1.082,0.29,0.437,0.217,0.492,0.512
JMA,47370,銚子市小畑新町,35.7211,140.8578,,2025-12-08T23:17:20.000,180.0,100,1,-2.092,2.07,0.634,2.5,2.502,0.388,0.301,-0.162,0.413,0.438,10.082,1.149,0.557,10.147,10.161
JMA,47372,浦河町野深,42.2826,142.7498,,2025-12-08T23:15:20.000,300.0,100,4,88.105,75.077,30.324,92.488,92.725,-8.232,10.023,-2.451,12.663,12.763,1.932,2.325,-0.921,2.726,2.832
JMA,47373,南房総市上堀,35.0353,139.8874,,2025-12-08T23:18:00.000,240.0,100,2,-1.895,-2.047,1.49,2.172,2.349,0.653,0.641,0.327,0.777,0.783,-3.777,-0.791,-5.342,3.846,6.579
JMA,47374,いわき市三和町,37.1048,140.7983,,2025-12-08T23:16:00.000,240.0,100,2,-8.158,-10.901,-2.819,12.581,12.585,-0.558,-0.731,0.33,0.762,0.771,-0.314,-0.241,0.219,0.352,0.414
JMA,47376,宮古市長沢,39.5767,141.8197,,2025-12-08T23:15:20.000,240.0,100,3,-25.05,26.623,14.408,30.629,31.952,-1.355,-2.14,-1.102,2.182,2.258,0.222,1.159,0.327,1.16,1.18
JMA,47401,稚内市開運,45.4154,141.6783,,2025-12-08T23:17:10.000,240.0,100,1,1.138,1.302,0.919,1.356,1.505,0.492,-0.748,-0.484,0.748,0.794,-12.815,-2.59,-8.157,13.074,15.41
JMA,47402,宗谷枝幸町本町,44.9402,142.5851,,2025-12-08T23:16:50.000,180.0,100,1,1.33,-1.338,1.182,1.721,1.93,0.431,-0.439,0.374,0.519,0.521,-6.375,-0.52,-9.801,6.379,11.694
JMA,47404,羽幌町南３条,44.3633,141.7008,,2025-12-08T23:16:00.000,300.0,100,2,-6.511,5.177,-3.816,6.899,6.993,-2.064,1.616,-1.414,2.41,2.472,1.764,-1.166,0.75,1.798,1.799
JMA,47405,雄武町雄武,44.5825,142.9618,,2025-12-08T23:16:40.000,240.0,100,2,2.223,-2.53,1.834,2.645,2.7,0.505,-0.567,0.414,0.58,0.638,2.745,-4.366,9.871,5.156,11.135
JMA,47406,留萌市大町,43.9463,141.6322,,2025-12-08T23:15:50.000,240.0,100,2,-5.997,-4.84,-3.767,6.553,6.581,-1.376,-1.097,-0.821,1.378,1.387,-1.417,-0.532,0.54,1.482,1.482
JMA,47407,旭川市宮前１条,43.7577,142.373,,2025-12-08T23:15:50.000,360.0,100,3,12.625,8.591,4.891,12.863,12.863,-3.287,-1.622,1.662,3.299,3.676,-1.796,1.224,-0.937,1.797,1.832
JMA,47409,網走市台町,44.0182,144.2796,,2025-12-08T23:15:50.000,360.0,100,2,3.942,-2.966,1.713,4.197,4.38,1.249,-0.912,-0.495,1.272,1.281,0.656,-12.019,4.127,12.027,12.716
JMA,47411,小樽市勝納町,43.1828,141.017,,2025-12-08T23:15:40.000,300.0,100,3,23.915,26.242,-13.48,29.772,29.785,2.317,-1.703,1.174,2.663,2.71,-4.339,3.274,-0.727,5.436,5.441
JMA,47412,札幌中央区北２条,43.0604,141.3289,,2025-12-08T23:15:30.000,360.0,100,3,-23.204,18.164,15.283,23.578,23.976,-2.726,-3.346,-1.665,3.881,3.885,-1.629,1.198,1.284,1.678,2.003
JMA,47413,岩見沢市５条,43.2125,141.7856,,2025-12-08T23:15:40.000,300.0,100,4,-46.101,-52.185,20.953,52.965,53.304,5.961,-6.805,2.638,6.863,6.887,2.728,2.492,1.171,2.85,2.852
JMA,47417,帯広市東４条,42.9226,143.2122,,2025-12-08T23:15:30.000,420.0,100,4,-56.406,62.232,-20.616,73.068,73.283,-8.411,-8.7,2.923,8.723,8.736,-2.944,-2.718,-1.464,3.538,3.592
JMA,47418,釧路市幸町,42.9867,144.3782,,2025-12-08T23:15:40.000,360.0,100,3,-18.114,16.776,-8.062,19.829,19.866,1.493,1.241,-0.568,1.526,1.533,0.675,0.707,0.785,0.812,1.003
JMA,47420,根室市弥栄,43.331,145.5857,,2025-12-08T23:16:00.000,240.0,100,2,-5.305,6.818,2.584,6.834,6.867,-0.361,0.418,-0.355,0.438,0.449,0.299,0.334,0.515,0.335,0.589
JMA,47421,寿都町新栄,42.7956,140.2243,,2025-12-08T23:15:30.000,240.0,100,2,-8.911,-8.577,-2.933,9.237,9.298,-0.824,-0.668,0.42,0.994,0.996,0.478,0.445,0.223,0.549,0.553
JMA,47423,室蘭市山手町,42.3118,140.9752,,2025-12-08T23:15:20.000,300.0,100,3,-22.087,24.999,17.088,31.027,31.056,-1.761,1.977,-1.527,2.135,2.138,0.578,-0.62,-0.698,0.665,0.964
JMA,47424,苫小牧市末広町,42.6381,141.6124,,2025-12-08T23:15:30.000,420.0,100,5弱,-73.059,118.307,-33.794,121.99,124.048,19.692,-12.758,2.317,22.938,22.944,-7.163,6.416,-3.454,8.409,8.684
JMA,47426,浦河町潮見,42.1625,142.7771,,2025-12-08T23:15:20.000,420.0,100,5弱,-105.268,-185.839,-43.421,202.609,206.619,-8.064,12.434,-3.367,12.728,12.985,-1.868,2.529,-1.682,2.54,2.641
JMA,47428,檜山江差町姥神,41.8679,140.125,,2025-12-08T23:15:30.000,300.0,100,3,-16.584,-13.714,8.885,16.596,16.627,-1.639,-1.626,-1.307,2.254,2.269,0.599,0.688,-0.462,0.772,0.821
JMA,47429,渡島森町御幸町,42.1052,140.5766,,2025-12-08T23:15:30.000,300.0,100,3,-32.534,28.597,16.827,32.729,32.982,-4.2,-4.529,-2.87,5.164,5.243,-2.123,-1.771,1.549,2.151,2.151
JMA,47430,函館市美原,41.8169,140.7541,,2025-12-08T23:15:20.000,360.0,100,4,-62.829,67.239,-30.888,71.531,71.622,3.284,3.769,-1.67,4.302,4.434,-0.638,-1.133,1.033,1.155,1.435
JMA,47433,倶知安町南１条,42.9009,140.7573,,2025-12-08T23:15:30.000,300.0,100,3,-19.0,16.137,8.722,20.636,20.843,-4.338,-4.37,-1.109,4.527,4.545,1.767,1.149,0.506,1.866,1.867
JMA,47435,紋別市南が丘町,44.3455,143.3555,,2025-12-08T23:16:00.000,300.0,100,2,4.03,3.159,-1.667,4.223,4.234,0.489,0.446,0.43,0.553,0.576,1.214,0.433,-0.309,1.233,1.237
JMA,47440,広尾町並木通,42.2948,143.3173,,2025-12-08T23:15:20.000,360.0,100,4,-40.997,42.817,24.091,44.415,44.682,2.723,3.191,2.253,3.752,3.918,0.821,-1.492,-0.987,1.611,1.672
JMA,47487,新千歳空港,42.7839,141.6788,,2025-12-08T23:15:30.000,420.0,100,5弱,105.678,-97.094,-47.99,108.842,110.142,-16.456,-20.124,-3.226,20.716,20.743,7.168,5.939,-2.582,9.304,9.394
JMA,47512,大船渡市大船渡町,39.0653,141.7146,,2025-12-08T23:15:30.000,360.0,100,3,50.033,-49.522,14.511,59.662,59.71,1.78,-2.221,0.771,2.573,2.578,0.578,-0.826,0.178,0.993,0.999
JMA,47520,新庄市東谷地田町,38.7574,140.3122,,2025-12-08T23:15:50.000,300.0,100,3,-9.036,-10.374,-4.3,10.599,10.606,-2.225,-2.783,1.29,3.014,3.019,-1.304,-1.224,0.573,1.437,1.437
JMA,47569,仙台空港,38.1379,140.9278,,2025-12-08T23:15:50.000,360.0,100,3,-19.923,-15.821,-6.975,20.322,20.346,-1.965,2.351,-0.837,2.416,2.42,-1.127,1.47,-2.425,1.753,2.947
JMA,47570,会津若松市材木町,37.4884,139.9104,,2025-12-08T23:16:30.000,240.0,100,2,2.726,3.246,-1.621,3.664,3.666,-0.958,-1.339,0.606,1.59,1.591,8.713,1.333,-0.624,8.814,8.834
JMA,47573,新潟空港,37.953,139.1094,,2025-12-08T23:16:50.000,360.0,100,2,-3.694,3.975,-1.647,4.249,4.251,-1.858,1.68,0.867,2.049,2.049,-1.734,-10.554,-5.866,10.625,12.134
JMA,47574,深浦町深浦岡町,40.6464,139.9334,,2025-12-08T23:15:30.000,300.0,100,3,25.727,-27.696,9.844,28.362,28.895,3.179,-2.164,1.166,3.18,3.183,-1.005,1.101,0.507,1.354,1.354
JMA,47575,青森市花園,40.822,140.7686,,2025-12-08T23:15:20.000,420.0,100,4,74.257,-95.491,-37.856,96.011,96.666,12.75,-11.539,-2.694,12.852,12.852,-4.49,3.135,1.23,4.564,4.564
JMA,47576,むつ市金曲,41.2834,141.2114,,2025-12-08T23:15:10.000,120.0,100,5強,212.83,-227.497,-67.901,243.679,246.1,-22.647,-21.146,-8.103,23.711,24.015,-5.177,-5.123,-3.038,5.984,6.055
JMA,47581,八戸市湊町,40.5278,141.5217,,2025-12-08T23:15:10.000,420.0,100,5強,408.125,-385.599,-235.653,456.012,456.299,-15.383,16.297,-5.838,17.683,17.685,-8.152,-3.544,5.393,8.192,9.784
JMA,47582,秋田市山王,39.7179,140.0995,,2025-12-08T23:15:40.000,420.0,100,3,10.705,11.807,4.978,13.363,13.439,-2.539,3.29,-0.978,3.293,3.386,-1.869,2.776,-0.564,2.905,2.92
JMA,47584,盛岡市山王町,39.6987,141.1658,,2025-12-08T23:15:20.000,420.0,100,4,-77.176,-78.297,-27.928,85.515,85.752,4.089,-6.478,1.284,6.525,6.539,0.704,1.263,0.441,1.263,1.274
JMA,47587,酒田市亀ケ崎,38.9085,139.8435,,2025-12-08T23:15:50.000,420.0,100,3,19.827,-19.666,-4.261,20.084,20.188,4.801,-4.206,1.53,4.923,4.927,3.263,2.778,1.68,3.407,3.436
JMA,47588,山形市緑町,38.2562,140.3459,,2025-12-08T23:16:00.000,300.0,100,2,5.475,3.976,2.854,5.596,5.671,-1.016,1.034,0.536,1.109,1.112,0.462,1.099,-0.392,1.099,1.099
JMA,47590,仙台宮城野区五輪,38.2622,140.8968,,2025-12-08T23:15:50.000,300.0,100,3,12.899,-13.291,-6.655,14.259,14.259,-1.662,1.831,-0.588,1.954,1.964,0.574,-0.735,0.342,0.822,0.844
JMA,47592,石巻市泉町,38.4277,141.2994,,2025-12-08T23:15:40.000,300.0,100,3,-18.755,16.443,8.46,20.249,20.376,1.031,-0.994,-0.627,1.253,1.26,-0.254,-1.056,-0.244,1.059,1.074
JMA,47595,福島市花園町,37.7621,140.4734,,2025-12-08T23:15:50.000,360.0,100,3,-14.913,11.505,-4.739,15.055,15.073,1.572,1.677,0.574,2.023,2.027,0.909,0.434,-0.292,0.913,0.959
JMA,47597,白河市郭内,37.1322,140.2155,,2025-12-08T23:16:00.000,300.0,100,2,-4.415,5.039,2.185,5.052,5.065,-0.874,-0.948,0.418,1.106,1.107,-0.244,0.331,-0.166,0.349,0.356
JMA,47598,いわき市小名浜,36.9479,140.9033,,2025-12-08T23:16:20.000,300.0,100,3,11.177,9.043,4.768,11.191,11.69,-1.46,-1.57,-0.719,1.572,1.572,-15.267,21.321,-51.526,26.223,57.815
JMA,47600,輪島市鳳至町,37.3912,136.8952,,2025-12-08T23:16:30.000,180.0,100,1,1.766,-1.353,-0.508,1.836,1.84,-0.24,0.209,-0.085,0.256,0.257,0.353,0.305,-0.197,0.451,0.46
JMA,47604,新潟中央区美咲町,37.8937,139.0188,,2025-12-08T23:16:50.000,360.0,100,2,-3.629,2.44,1.109,3.644,3.646,1.815,-1.378,-0.638,1.855,1.866,10.937,4.655,-7.126,11.887,13.858
JMA,47610,長野市箱清水,36.6627,138.1926,,2025-12-08T23:17:50.000,180.0,100,1,-0.924,1.431,-0.534,1.539,1.562,-0.418,-0.549,-0.188,0.563,0.563,8.704,-2.134,2.576,8.924,9.287
JMA,47612,上越市大手町,37.1068,138.2469,,2025-12-08T23:17:40.000,120.0,100,1,1.159,-1.124,-0.337,1.385,1.39,-0.437,-0.369,0.12,0.446,0.446,-6.984,3.13,3.402,7.653,8.374
JMA,47615,宇都宮市明保野町,36.5498,139.8683,,2025-12-08T23:16:10.000,240.0,100,2,-4.927,-5.013,-1.622,5.254,5.311,-0.723,0.692,-0.354,0.807,0.807,-1.133,-1.064,0.137,1.554,1.555
JMA,47620,諏訪市湖岸通り,36.0461,138.1095,,2025-12-08T23:16:40.000,300.0,100,2,2.839,2.962,-0.918,3.604,3.604,-0.904,-0.946,0.193,0.948,0.948,-0.357,-0.373,-0.325,0.379,0.408
JMA,47622,軽井沢町追分,36.3421,138.5472,,2025-12-08T23:17:50.000,180.0,100,2,-2.017,-2.309,1.067,2.324,2.373,-0.608,-0.563,0.259,0.671,0.683,-5.187,7.467,1.721,9.092,9.251
JMA,47624,前橋市昭和町,36.4055,139.0608,,2025-12-08T23:17:30.000,240.0,100,1,-2.114,-1.626,1.151,2.115,2.117,-0.867,0.891,-0.365,0.904,0.921,0.755,1.476,-2.759,1.484,3.117
JMA,47626,熊谷市桜町,36.1504,139.3807,,2025-12-08T23:16:50.000,300.0,100,2,-4.257,-4.415,-1.485,4.93,5.008,-1.245,1.414,0.394,1.88,1.886,-29.922,-11.537,20.263,32.069,37.935
JMA,47628,石岡市柿岡,36.2342,140.1893,,2025-12-08T23:16:10.000,240.0,100,3,-10.987,8.475,-3.728,11.803,12.006,1.406,1.13,0.483,1.589,1.627,0.408,-0.852,0.152,0.945,0.948
JMA,47629,水戸市金町,36.3816,140.468,,2025-12-08T23:16:10.000,300.0,100,2,-7.456,6.928,-3.358,7.547,7.596,-1.572,-1.37,0.693,1.592,1.619,-12.326,-12.664,-2.286,17.672,17.819
JMA,47637,飯田市高羽町,35.5232,137.8226,,2025-12-08T23:18:10.000,120.0,100,1,-1.062,1.036,-0.609,1.256,1.256,-0.377,-0.252,-0.132,0.38,0.392,5.479,3.417,2.811,6.455,7.037
JMA,47638,甲府市飯田,35.6674,138.5539,,2025-12-08T23:17:40.000,180.0,100,2,-2.181,-2.675,-1.065,2.872,2.873,0.385,-0.505,0.184,0.517,0.522,-5.578,0.392,-2.604,5.59,6.165
JMA,47640,富士河口湖町船津,35.5008,138.7606,,2025-12-08T23:17:40.000,180.0,100,2,2.021,-1.953,1.642,2.262,2.302,-0.45,0.592,0.322,0.595,0.595,17.567,-10.86,1.86,20.652,20.735
JMA,47641,秩父市上町,35.9897,139.0738,,2025-12-08T23:17:40.000,120.0,100,1,1.716,3.081,-1.243,3.119,3.185,0.495,0.507,-0.348,0.68,0.744,-3.573,-4.045,1.682,5.396,5.649
JMA,47648,銚子市川口町,35.7399,140.858,,2025-12-08T23:17:20.000,240.0,100,2,-2.512,-3.354,-0.903,3.632,3.633,0.432,0.502,-0.182,0.507,0.526,-3.034,0.275,1.33,3.04,3.317
JMA,47657,三島市東本町,35.1141,138.9257,,2025-12-08T23:18:10.000,120.0,100,1,-2.393,2.112,0.784,2.678,2.726,0.436,-0.457,-0.167,0.458,0.476,-7.23,-0.217,1.315,7.23,7.349
JMA,47668,熱海市網代,35.0482,139.0925,,2025-12-08T23:18:00.000,60.0,100,1,1.036,-1.2,0.499,1.212,1.215,-0.18,0.321,0.089,0.356,0.364,-2.399,4.437,1.021,5.043,5.145
JMA,47670,横浜中区山手町,35.4398,139.6529,,2025-12-08T23:16:40.000,360.0,100,2,4.001,-5.826,-1.33,6.618,6.63,-0.866,-1.038,0.338,1.148,1.151,2.245,4.653,2.113,5.018,5.444
JMA,47671,東京国際空港,35.5352,139.7998,,2025-12-08T23:17:30.000,360.0,100,2,-5.251,-3.621,-1.558,5.294,5.299,1.213,-1.039,-0.52,1.506,1.506,19.86,10.953,-8.098,22.679,24.081
JMA,47672,館山市長須賀,34.9871,139.8654,,2025-12-08T23:17:50.000,180.0,100,2,3.281,-3.494,2.01,3.499,3.514,0.858,0.641,-0.425,0.859,0.868,-17.477,-6.219,1.342,18.55,18.593
JMA,47674,勝浦市墨名,35.1507,140.3121,,2025-12-08T23:18:10.000,60.0,100,1,1.142,1.049,-0.452,1.279,1.282,-0.591,-0.396,0.171,0.593,0.617,-8.497,-1.392,2.57,8.502,8.878
JMA,47675,伊豆大島町元町,34.7502,139.3553,,2025-12-08T23:18:10.000,60.0,100,1,1.073,0.945,0.49,1.074,1.075,0.291,0.218,0.216,0.294,0.304,0.736,-2.505,0.447,2.61,2.616
JMA,47682,千葉中央区中央港,35.6027,140.1046,,2025-12-08T23:16:50.000,360.0,100,3,-9.101,-8.615,-2.442,10.284,10.285,-1.441,1.436,0.439,1.626,1.637,-30.144,14.678,-17.721,33.526,37.922
JMA,47686,成田国際空港,35.7747,140.3823,,2025-12-08T23:16:30.000,360.0,100,2,-5.638,-5.982,-2.134,6.287,6.296,0.907,0.754,0.428,0.951,0.951,5.827,2.301,25.914,6.183,26.641
JMA,47690,日光市中宮祠,36.7404,139.4957,,2025-12-08T23:17:30.000,60.0,100,1,-1.161,1.029,-0.637,1.291,1.292,0.221,0.249,0.244,0.287,0.306,1.861,-2.525,1.566,3.121,3.489
JMA,47747,豊岡市桜町,35.5358,134.8226,,2025-12-08T23:17:30.000,60.0,100,1,-0.794,-0.491,-0.136,0.813,0.815,0.14,0.105,-0.034,0.142,0.142,-1.636,-0.946,-0.471,1.878,1.936
NIED,AKT001,,40.328,140.7429,166.0,2025-12-08T23:15:34.000,152.0,100,,44.035,-38.224,29.604,44.255,50.086,2.143,-1.548,0.907,2.278,2.293,1.172,-0.584,0.663,1.22,1.263
NIED,AKT004,,40.3886,139.9822,27.0,2025-12-08T23:15:42.000,139.0,100,,7.326,-5.561,-31.567,8.227,31.731,1.112,-0.784,-0.624,1.182,1.188,-0.8,-0.599,-0.511,0.809,0.819
NIED,AKT007,,40.0376,140.0919,17.0,2025-12-08T23:15:51.000,144.0,100,,11.488,5.702,-7.316,11.66,12.55,1.457,-1.311,-0.686,1.601,1.608,1.037,-0.851,-0.371,1.092,1.105
NIED,AKT008,,39.884,140.0706,4.0,2025-12-08T23:15:58.000,155.0,100,,16.869,-18.812,-41.275,23.013,44.027,2.652,3.056,-1.05,3.68,3.71,2.439,1.564,1.144,2.74,2.795
NIED,AKT010,,39.7223,140.0998,6.0,2025-12-08T23:16:22.000,65.0,100,,17.369,-17.703,-26.335,23.538,32.68,-2.128,3.582,-0.943,4.066,4.12,-6.86,27.328,2.096,28.176,28.179
NIED,AKT011,,39.8133,140.5805,315.0,2025-12-08T23:15:45.000,139.0,100,,17.614,-14.667,38.584,17.654,40.027,2.05,-1.699,0.643,2.348,2.363,-0.939,0.928,0.467,1.162,1.168
NIED,AKT012,,39.7014,140.7178,206.0,2025-12-08T23:15:46.000,146.0,100,,-18.289,-13.429,23.103,19.143,27.363,1.204,1.522,0.639,1.531,1.577,1.462,0.979,-0.331,1.525,1.525
NIED,AKT014,,39.595,140.5573,56.0,2025-12-08T23:15:49.000,150.0,100,,-23.414,-15.388,-15.098,23.758,25.89,-1.536,-1.341,-0.633,1.54,1.559,-0.658,0.8,0.312,0.808,0.808
NIED,AKT018,,39.1937,140.1899,114.0,2025-12-08T23:15:56.000,156.0,100,,-19.283,-16.359,-16.125,21.522,24.339,2.413,-3.481,1.183,4.086,4.092,1.239,1.356,-0.694,1.582,1.726
NIED,AKT019,,39.039,140.449,173.0,2025-12-08T23:15:52.000,161.0,100,,11.407,55.823,36.601,56.063,65.256,-1.05,-1.822,-0.858,1.899,1.915,-4.481,-0.908,-3.021,4.508,5.426
NIED,AKT021,,39.994,140.4035,119.0,2025-12-08T23:15:40.000,145.0,100,,9.689,-13.829,20.837,14.655,21.518,1.474,1.607,-0.833,1.991,1.991,0.665,0.864,-0.343,1.039,1.058
NIED,AKT022,,39.7739,140.6669,270.0,2025-12-08T23:15:42.000,148.0,100,,-21.122,-14.398,32.91,22.89,39.166,1.479,-1.399,0.999,1.903,1.943,-0.954,-1.095,-0.486,1.261,1.311
NIED,AOM001,,41.5269,140.9246,38.0,2025-12-08T23:15:31.000,185.0,100,,46.951,-47.519,24.187,53.656,55.003,-2.963,-2.415,1.28,3.449,3.474,1.299,1.136,-0.828,1.336,1.572
NIED,AOM002,,41.328,140.8132,13.0,2025-12-08T23:15:31.000,162.0,100,,77.123,130.016,43.376,131.05,131.597,-2.779,-3.983,1.352,4.099,4.109,0.683,-0.846,0.809,0.86,0.982
NIED,AOM004,,41.4064,141.4477,29.0,2025-12-08T23:15:25.000,160.0,100,,309.425,201.04,68.88,315.107,315.108,9.329,-7.539,-3.266,9.471,9.553,-0.983,1.281,-0.981,1.311,1.392
NIED,AOM007,,41.1689,141.3845,17.0,2025-12-08T23:15:24.000,165.0,100,,255.868,264.07,-104.645,296.858,302.987,8.537,-9.678,-3.312,9.852,10.337,-2.095,-1.518,1.533,2.547,2.955
NIED,AOM013,,40.4126,141.2813,29.0,2025-12-08T23:15:29.000,156.0,100,,-171.435,161.116,-63.638,175.46,175.578,-8.74,-7.714,2.212,9.187,9.231,2.408,2.405,-0.917,2.599,2.633
NIED,AOM017,,40.6388,139.9295,24.0,2025-12-08T23:15:42.000,150.0,100,,-28.218,-11.668,-11.96,29.021,29.148,2.041,-1.563,-0.965,2.041,2.087,-0.778,0.974,0.502,1.201,1.202
NIED,FKS004,,37.6798,140.7342,488.0,2025-12-08T23:16:10.000,141.0,100,,12.946,-18.942,-28.866,19.705,32.181,0.551,1.039,-0.338,1.098,1.103,0.279,0.739,0.549,0.745,0.778
NIED,FKS006,,37.5022,140.7593,471.0,2025-12-08T23:16:21.000,132.0,100,,19.487,-23.577,19.848,24.444,28.225,0.896,-1.586,0.461,1.801,1.84,-2.303,-3.875,-0.856,4.507,4.588
NIED,FKS009,,37.2796,140.6344,430.0,2025-12-08T23:16:24.000,123.0,100,,-9.031,12.478,16.861,12.934,20.055,-0.33,-0.497,-0.308,0.524,0.543,0.472,0.708,0.3,0.725,0.753
NIED,FKS025,,37.3082,139.8994,439.0,2025-12-08T23:17:12.000,81.0,100,,-3.147,5.624,27.018,5.674,27.378,-0.318,0.336,-0.237,0.403,0.414,5.135,5.706,1.77,7.673,7.836
NIED,FKS026,,37.2664,139.5368,494.0,2025-12-08T23:17:29.000,68.0,100,,14.546,11.426,21.548,18.302,27.691,-0.361,-0.393,-0.25,0.42,0.436,-4.866,0.634,2.183,4.889,5.346
NIED,FKS030,,37.4548,139.5252,306.0,2025-12-08T23:17:24.000,63.0,100,,4.52,-5.833,29.65,6.633,30.204,-0.444,0.424,0.278,0.551,0.551,-0.489,-4.119,4.076,4.144,5.812
NIED,HKD023,,43.7734,141.3686,10.0,2025-12-08T23:16:02.000,121.0,100,,-15.677,-27.745,-9.641,28.911,29.734,0.869,0.941,-0.516,1.021,1.08,0.788,-0.938,-0.97,1.026,1.271
NIED,HKD032,,44.0235,142.4123,136.0,2025-12-08T23:16:04.000,142.0,100,,-15.812,-22.862,-4.222,23.33,23.396,1.219,-1.207,0.749,1.489,1.492,-0.729,-0.546,-0.678,0.892,0.896
NIED,HKD033,,43.909,142.5699,203.0,2025-12-08T23:16:06.000,125.0,100,,6.404,13.972,-16.04,14.419,20.32,-0.918,-1.225,-0.885,1.253,1.302,0.926,0.468,0.6,0.927,0.941
NIED,HKD034,,43.8543,142.7686,350.0,2025-12-08T23:16:16.000,120.0,100,,-5.416,-8.211,5.014,8.291,8.641,0.617,-1.011,-0.81,1.092,1.135,2.757,-2.415,12.818,3.665,13.331
NIED,HKD037,,43.5889,142.4673,240.0,2025-12-08T23:16:01.000,139.0,100,,-42.634,-14.096,19.864,42.812,45.115,2.743,2.078,-1.108,3.086,3.108,-0.858,-1.04,0.833,1.257,1.334
NIED,HKD038,,43.1666,142.5662,353.0,2025-12-08T23:15:52.000,140.0,100,,-41.844,28.443,-18.615,41.845,45.742,-2.464,-1.947,1.488,2.479,2.596,-0.538,-0.422,-0.616,0.632,0.73
NIED,HKD040,,42.9806,142.3994,334.0,2025-12-08T23:15:50.000,150.0,100,,23.724,-31.847,16.994,32.341,34.676,-2.988,-3.154,2.573,3.218,4.033,1.537,-1.152,-1.486,1.54,1.643
NIED,HKD041,,43.6246,142.6839,440.0,2025-12-08T23:15:59.000,152.0,100,,14.295,-13.357,-13.483,15.216,19.179,2.439,-2.118,-1.501,2.752,2.779,-0.663,0.633,0.441,0.702,0.715
NIED,HKD045,,44.3288,142.9453,121.0,2025-12-08T23:16:53.000,73.0,100,,-3.291,-3.8,-5.664,4.086,6.365,0.406,0.541,0.473,0.577,0.6,-2.139,-0.801,0.351,2.249,2.251
NIED,HKD046,,44.192,143.0767,132.0,2025-12-08T23:16:50.000,66.0,100,,-11.754,4.675,5.127,12.225,12.875,0.361,-0.4,-0.406,0.489,0.553,-0.708,-0.527,-2.395,0.792,2.493
NIED,HKD047,,44.3677,143.3454,10.0,2025-12-08T23:16:50.000,89.0,100,,-6.53,5.975,-12.882,7.25,13.078,-1.345,1.247,-0.794,1.615,1.696,-28.409,5.758,-1.04,28.942,28.949
NIED,HKD049,,44.0921,143.5336,58.9,2025-12-08T23:16:12.000,118.0,100,,13.889,-15.645,4.671,18.806,18.872,-0.658,0.75,-0.595,0.753,0.76,-0.738,0.78,0.503,0.789,0.927
NIED,HKD050,,43.8785,143.1747,386.0,2025-12-08T23:16:20.000,93.0,100,,-9.086,-4.819,4.013,9.635,9.982,0.393,0.583,-0.697,0.603,0.725,-4.055,-4.825,2.796,6.303,6.895
NIED,HKD053,,43.7849,143.6072,208.0,2025-12-08T23:16:01.000,131.0,100,,16.662,18.098,-12.313,20.203,20.806,-1.364,1.299,0.616,1.399,1.405,0.627,-0.371,0.23,0.634,0.637
NIED,HKD056,,43.6705,143.5781,229.0,2025-12-08T23:15:58.000,143.0,100,,-30.258,-15.89,-11.469,31.669,32.551,-0.968,1.245,0.747,1.274,1.274,-0.468,0.495,0.626,0.64,0.895
NIED,HKD061,,44.0699,144.9973,64.2,2025-12-08T23:16:10.000,132.0,100,,16.471,-12.016,10.483,20.152,21.422,0.45,-0.412,0.245,0.467,0.516,1.145,-0.329,-0.463,1.191,1.278
NIED,HKD063,,44.106,145.2478,4.5,2025-12-08T23:16:17.000,127.0,100,,-17.437,-14.38,-19.484,18.37,23.808,-1.713,0.879,0.557,1.714,1.719,-3.213,-0.65,0.215,3.278,3.279
NIED,HKD067,,43.555,144.9726,30.0,2025-12-08T23:16:38.000,91.0,100,,27.963,-38.999,13.756,39.696,39.968,-2.345,-2.766,3.536,2.77,3.668,3.634,-21.07,75.447,21.363,78.413
NIED,HKD068,,43.4108,144.7704,105.0,2025-12-08T23:16:04.000,134.0,100,,57.918,-58.637,-22.064,61.397,61.87,-2.064,-2.409,0.896,2.41,2.423,-1.643,3.334,-1.145,3.38,3.46
NIED,HKD071,,43.2326,145.2604,38.0,2025-12-08T23:16:28.000,90.0,100,,39.763,35.441,14.185,40.071,40.53,2.446,-6.382,0.314,6.62,6.621,32.923,-137.614,2.843,141.35,141.372
NIED,HKD074,,43.368,145.8026,16.2,2025-12-08T23:16:20.000,107.0,100,,31.743,-40.806,25.246,42.069,44.182,0.97,1.054,0.452,1.213,1.213,2.334,-11.988,4.683,12.198,13.043
NIED,HKD077,,42.9845,144.3824,3.0,2025-12-08T23:16:00.000,127.0,100,,28.573,-23.917,-23.961,31.154,34.191,2.171,1.978,-1.226,2.273,2.273,-5.334,-0.79,-2.265,5.387,5.844
NIED,HKD087,,43.1502,143.8916,170.0,2025-12-08T23:15:52.000,153.0,100,,-18.659,18.074,-8.964,20.937,21.128,1.741,-1.722,-0.868,1.944,1.948,1.254,-0.457,0.368,1.254,1.263
NIED,HKD088,,43.4704,143.7488,215.0,2025-12-08T23:15:56.000,126.0,100,,-28.93,27.635,-13.542,35.165,37.326,-0.742,0.887,-0.532,0.989,0.992,0.602,0.377,0.415,0.653,0.773
NIED,HKD089,,43.2436,143.5544,89.5,2025-12-08T23:15:55.000,144.0,100,,-39.7,-43.49,25.008,47.159,48.314,-2.828,-2.231,-1.676,2.99,3.15,1.213,1.264,-2.387,1.444,2.534
NIED,HKD099,,43.0736,142.8392,177.0,2025-12-08T23:15:59.000,121.0,100,,-46.488,-60.9,50.032,66.862,72.465,-4.037,-4.166,-1.819,4.317,4.389,1.092,5.844,-0.986,5.945,6.026
NIED,HKD100,,42.2864,143.312,36.1,2025-12-08T23:15:40.000,135.0,100,,-92.856,115.011,24.452,116.522,116.557,-4.25,5.058,1.603,5.453,5.55,-1.036,1.489,-0.627,1.515,1.562
NIED,HKD101,,43.3338,142.9473,370.0,2025-12-08T23:15:58.000,118.0,100,,-9.454,-15.75,-10.429,16.518,18.377,-1.099,1.265,-1.028,1.487,1.487,-1.575,0.775,-0.505,1.751,1.755
NIED,HKD102,,42.8778,142.4481,283.0,2025-12-08T23:15:47.000,169.0,100,,-22.326,24.374,18.748,26.283,31.052,3.215,-2.766,-2.114,3.397,3.493,1.459,-1.441,1.182,1.585,1.763
NIED,HKD104,,42.5886,142.131,70.4,2025-12-08T23:15:39.000,173.0,100,,-31.006,-30.106,-17.821,35.835,36.194,5.984,-3.318,2.194,6.232,6.235,3.577,-1.822,-1.564,3.642,3.947
NIED,HKD111,,42.017,143.1487,22.0,2025-12-08T23:15:34.000,131.0,100,,20.732,-22.649,43.823,24.587,45.831,1.945,2.066,-1.549,2.302,2.328,0.844,-1.134,0.909,1.197,1.486
NIED,HKD112,,41.937,143.2403,15.0,2025-12-08T23:15:34.000,151.0,100,,-81.828,111.393,-32.698,114.86,115.106,4.001,4.441,-1.334,4.558,4.636,0.767,-1.449,-0.731,1.449,1.461
NIED,HKD115,,44.007,142.1485,157.0,2025-12-08T23:16:08.000,123.0,100,,7.135,11.134,-8.02,11.762,12.49,0.997,1.154,-1.307,1.228,1.474,-0.706,0.436,-1.0,0.732,1.004
NIED,HKD123,,42.9933,142.0085,194.0,2025-12-08T23:15:46.000,161.0,100,,-24.573,-32.208,-14.907,33.884,36.89,-6.371,3.636,1.876,6.372,6.38,3.6,1.525,-0.908,3.605,3.605
NIED,HKD126,,42.5748,141.9284,7.0,2025-12-08T23:15:42.000,169.0,100,,150.125,-133.566,-39.003,153.2,154.131,16.235,14.598,-2.967,17.412,17.422,5.954,5.626,-1.413,6.043,6.189
NIED,HKD131,,42.4206,141.0809,13.0,2025-12-08T23:15:40.000,164.0,100,,-74.463,-97.062,50.86,97.238,106.014,-3.041,-3.057,-1.873,3.556,3.603,1.216,0.906,-1.036,1.466,1.649
NIED,HKD132,,42.3484,141.0318,3.0,2025-12-08T23:15:40.000,128.0,100,,84.114,-93.281,-40.263,110.481,110.509,-4.163,7.147,-1.893,8.002,8.012,1.933,-3.117,-0.931,3.667,3.715
NIED,HKD133,,42.4727,140.8657,11.0,2025-12-08T23:15:42.000,151.0,100,,57.868,48.777,-23.001,59.983,62.139,4.915,5.112,-2.625,6.401,6.403,-2.129,-1.679,0.691,2.472,2.56
NIED,HKD135,,42.5533,140.8864,63.0,2025-12-08T23:15:42.000,175.0,100,,-61.381,-78.165,-39.86,80.692,82.335,-4.558,6.643,3.048,6.791,6.851,-0.874,1.172,-0.466,1.272,1.273
NIED,HKD136,,42.5901,140.6441,4.0,2025-12-08T23:15:46.000,141.0,100,,39.203,-37.067,25.683,42.641,42.713,-2.12,-2.18,-0.981,2.351,2.357,-0.524,-0.545,0.511,0.601,0.639
NIED,HKD137,,43.3236,140.3791,15.0,2025-12-08T23:16:00.000,151.0,100,,-9.781,-16.264,-21.389,17.609,26.063,-0.712,0.821,0.71,0.926,0.926,0.486,-0.548,-0.416,0.696,0.809
NIED,HKD138,,43.2923,140.6013,16.0,2025-12-08T23:15:55.000,133.0,100,,10.946,-32.708,-9.807,32.85,33.993,-0.843,0.695,0.51,0.896,0.905,-0.957,0.482,-0.324,0.963,0.976
NIED,HKD140,,43.1908,140.9933,51.0,2025-12-08T23:15:52.000,141.0,100,,-15.818,-12.419,12.064,16.775,20.042,-1.11,-0.95,0.787,1.249,1.271,-0.548,0.584,-0.592,0.713,0.779
NIED,HKD141,,43.1449,140.4355,9.0,2025-12-08T23:16:28.000,78.0,100,,6.628,-9.212,5.281,10.835,11.594,-0.54,-0.568,0.822,0.783,1.096,8.155,-10.971,15.13,13.667,20.381
NIED,HKD145,,42.7978,140.9361,259.0,2025-12-08T23:15:45.000,141.0,100,,-28.698,28.454,-21.189,34.475,36.802,1.662,-1.577,0.635,2.019,2.019,0.577,-1.307,-0.354,1.429,1.431
NIED,HKD147,,42.8056,140.5305,33.0,2025-12-08T23:15:51.000,157.0,100,,-17.136,-12.041,10.143,17.303,18.497,1.397,-1.675,-0.802,1.745,1.773,-0.511,-0.774,-0.329,0.782,0.815
NIED,HKD149,,42.7905,140.2305,24.0,2025-12-08T23:15:54.000,128.0,100,,-8.92,8.659,-8.247,9.796,11.05,0.946,-0.72,0.37,1.077,1.084,-0.559,0.402,0.256,0.562,0.575
NIED,HKD150,,42.701,140.0619,6.0,2025-12-08T23:15:54.000,146.0,100,,12.471,-12.357,-9.365,15.493,17.292,1.022,0.899,0.442,1.029,1.051,0.699,-0.485,0.276,0.827,0.829
NIED,HKD153,,42.1245,140.3755,69.0,2025-12-08T23:15:47.000,105.0,100,,-15.165,23.297,20.521,23.624,27.782,1.096,1.081,-0.978,1.223,1.265,-1.909,-1.46,-1.142,2.401,2.659
NIED,HKD156,,41.8996,140.696,84.0,2025-12-08T23:15:37.000,168.0,100,,-96.422,-64.597,26.206,96.453,97.516,2.956,-4.031,-1.619,4.634,4.635,0.754,0.863,0.615,1.017,1.063
NIED,HKD157,,41.9053,140.9698,37.0,2025-12-08T23:15:34.000,152.0,100,,-87.566,-74.418,63.229,91.255,99.884,3.176,-2.103,-1.808,3.44,3.518,0.833,-0.675,0.751,0.841,1.01
NIED,HKD162,,41.4859,140.2469,17.0,2025-12-08T23:15:38.000,169.0,100,,21.268,42.432,-19.54,42.441,43.617,1.743,3.266,-1.453,3.408,3.417,-0.876,-1.134,-0.697,1.259,1.318
NIED,HKD163,,41.4338,140.1117,13.0,2025-12-08T23:15:48.000,84.0,100,,-26.776,15.729,8.145,26.776,26.967,-0.665,-1.156,-1.053,1.197,1.341,0.941,0.935,0.869,1.308,1.438
NIED,HKD164,,42.4502,139.8533,11.0,2025-12-08T23:15:53.000,160.0,100,,-14.281,11.483,8.594,15.655,16.203,-0.823,-0.883,0.528,0.909,0.924,-0.893,1.466,0.621,1.695,1.714
NIED,HKD165,,42.4287,140.0178,19.0,2025-12-08T23:15:49.000,165.0,100,,20.312,26.233,11.942,26.304,26.414,-1.097,-1.438,0.57,1.518,1.523,-0.278,-0.476,-0.323,0.492,0.5
NIED,HKD166,,42.2286,139.8186,45.0,2025-12-08T23:15:56.000,89.0,100,,5.469,14.485,5.944,15.083,15.867,-0.455,-0.328,-0.384,0.456,0.48,0.79,0.361,0.404,0.805,0.808
NIED,HKD167,,42.1297,139.9813,21.0,2025-12-08T23:15:45.000,157.0,100,,-25.391,-21.656,16.287,28.211,29.055,-1.207,1.126,-0.682,1.248,1.264,-0.942,-0.461,-0.4,0.951,0.951
NIED,HKD168,,41.8691,140.1266,2.0,2025-12-08T23:15:41.000,176.0,100,,19.812,18.049,21.64,19.815,26.266,1.714,-1.665,-1.078,2.143,2.16,-0.691,0.588,0.693,0.864,0.865
NIED,HKD170,,41.7495,140.251,83.0,2025-12-08T23:15:42.000,116.0,100,,17.561,-6.401,-4.679,17.695,17.727,-0.617,-0.789,0.523,0.803,0.803,-0.307,0.525,0.444,0.594,0.687
NIED,HKD171,,41.649,139.9979,31.0,2025-12-08T23:15:43.000,122.0,100,,13.835,15.617,-4.723,17.73,17.731,-1.01,0.935,0.717,1.012,1.012,0.452,-0.923,-0.381,1.025,1.033
NIED,HKD172,,42.2402,139.5519,6.0,2025-12-08T23:15:49.000,125.0,100,,11.372,9.696,-6.25,13.791,14.342,0.514,0.497,0.404,0.521,0.562,-0.24,-0.421,-0.255,0.429,0.434
NIED,HKD174,,42.595,139.8286,10.0,2025-12-08T23:15:54.000,121.0,100,,-12.672,-17.553,-5.47,19.998,20.276,0.407,-0.491,0.365,0.492,0.513,1.01,0.447,-0.288,1.048,1.05
NIED,HKD175,,43.6015,141.3882,28.5,2025-12-08T23:15:59.000,152.0,100,,12.44,27.659,10.484,28.228,28.346,-1.068,-1.1,-0.777,1.232,1.241,-0.528,-0.609,-0.373,0.665,0.734
NIED,HKD176,,43.5324,141.5924,156.0,2025-12-08T23:16:04.000,121.0,100,,-22.32,34.088,-30.861,35.68,41.408,2.439,1.987,-1.29,2.725,2.879,1.652,-2.499,0.659,2.987,3.054
NIED,HKD183,,42.9714,141.1779,268.0,2025-12-08T23:15:51.000,123.0,100,,-15.985,7.442,12.805,16.125,17.198,1.083,0.855,-0.707,1.333,1.365,-0.787,0.699,-0.522,0.953,0.992
NIED,HKD185,,42.7756,141.4016,266.0,2025-12-08T23:15:42.000,171.0,100,,-72.751,-79.555,48.816,91.184,91.185,5.484,6.4,-2.423,6.427,6.438,-1.377,1.576,0.566,1.659,1.687
NIED,IWT005,,39.6478,141.9465,6.0,2025-12-08T23:15:34.000,177.0,100,,37.908,25.464,-90.763,38.765,92.947,-2.508,2.18,-2.215,2.531,2.554,-0.612,-0.896,-0.536,0.976,1.051
NIED,IWT006,,39.485,141.9748,17.0,2025-12-08T23:15:37.000,165.0,100,,-46.163,-55.556,-65.31,63.815,79.028,1.953,-2.618,-0.943,2.796,2.805,1.259,-2.045,-0.477,2.401,2.419
NIED,IWT008,,39.0815,141.7093,24.0,2025-12-08T23:15:47.000,143.0,100,,-31.664,-26.789,-48.643,32.608,54.03,-1.39,-1.604,-0.926,1.84,1.847,-0.45,-0.763,-0.275,0.786,0.808
NIED,IWT009,,39.019,141.4053,148.0,2025-12-08T23:15:46.000,157.0,100,,46.796,37.572,-39.423,46.826,54.314,0.994,-1.626,0.68,1.901,1.918,0.289,-1.689,-0.894,1.693,1.914
NIED,IWT016,,39.6,141.679,198.0,2025-12-08T23:15:35.000,163.0,100,,-80.774,-66.57,-67.723,85.692,104.034,2.738,-3.771,1.851,4.099,4.174,-0.889,1.267,-0.386,1.52,1.547
NIED,IWT017,,39.6339,141.4379,617.0,2025-12-08T23:15:37.000,165.0,100,,-96.613,-56.64,-84.104,96.781,108.078,3.977,-3.075,-1.72,4.02,4.044,0.655,0.835,-0.464,0.987,1.003
NIED,IWT018,,39.6954,141.1477,120.0,2025-12-08T23:15:38.000,161.0,100,,-72.348,58.28,-29.662,74.288,74.416,2.975,-2.77,-0.932,3.28,3.29,0.721,0.957,-0.373,0.991,0.992
NIED,IWT019,,39.803,141.6584,294.0,2025-12-08T23:15:36.000,128.0,100,,-36.326,-43.142,-57.802,45.362,68.897,1.48,-1.828,-0.906,1.957,2.117,-1.403,-0.71,0.501,1.413,1.423
NIED,IWT023,,40.037,141.4501,402.0,2025-12-08T23:15:32.000,152.0,100,,-66.626,-84.88,-34.858,94.363,95.376,-3.782,3.363,-2.303,4.498,4.503,-1.5,-1.008,-0.609,1.762,1.798
NIED,IWT025,,39.5169,140.8299,367.0,2025-12-08T23:15:42.000,157.0,100,,36.992,-49.472,-20.258,49.78,50.878,-1.553,1.836,0.772,1.951,2.029,-0.789,-0.616,-0.299,0.868,0.87
NIED,MYG001,,38.9017,141.5709,36.0,2025-12-08T23:15:46.000,170.0,100,,-66.74,-40.957,-27.348,67.649,70.067,-2.748,1.985,-1.556,2.941,2.946,-0.483,-0.783,0.434,0.801,0.823
NIED,MYG002,,38.7261,141.511,65.0,2025-12-08T23:15:51.000,158.0,100,,44.2,37.281,-27.376,49.726,52.348,-0.995,1.171,-0.739,1.35,1.353,-0.787,-0.646,-0.367,0.857,0.899
NIED,MYG003,,38.7349,141.3116,32.0,2025-12-08T23:15:52.000,144.0,100,,22.682,30.393,-22.125,30.434,34.989,0.979,1.281,0.826,1.318,1.417,0.746,-1.045,-0.247,1.061,1.066
NIED,MYG007,,38.5877,141.251,4.0,2025-12-08T23:15:52.000,150.0,100,,50.682,-43.637,-63.994,57.256,70.503,3.854,3.551,1.285,4.192,4.198,1.546,-1.262,-0.655,1.995,2.046
NIED,MYG008,,38.5676,141.4267,26.0,2025-12-08T23:15:54.000,150.0,100,,-27.895,25.805,-59.495,31.597,61.041,1.021,1.08,-0.717,1.222,1.252,0.506,1.406,-0.53,1.494,1.585
NIED,MYG011,,38.302,141.5079,12.0,2025-12-08T23:16:17.000,112.0,100,,11.289,-10.783,-38.307,13.006,38.889,0.608,-0.669,0.42,0.78,0.811,2.883,2.834,11.305,4.043,12.005
NIED,MYG012,,38.3288,141.0128,74.0,2025-12-08T23:16:11.000,131.0,100,,8.181,11.65,-16.397,12.045,17.506,0.798,-1.124,0.502,1.155,1.242,-1.479,-1.792,-0.561,2.323,2.361
NIED,MYG014,,38.3173,140.6362,259.0,2025-12-08T23:16:11.000,137.0,100,,-25.174,31.139,-40.28,31.925,46.055,1.556,-1.506,-0.743,1.831,1.835,0.271,-0.715,0.589,0.725,0.848
NIED,MYG018,,38.7194,141.5228,24.0,2025-12-08T23:15:53.000,137.0,100,,19.285,18.955,-30.312,21.973,33.767,0.749,0.784,-0.773,0.893,0.896,-0.79,0.614,0.422,1.0,1.081
NIED,MYG019,,38.7513,140.7226,144.0,2025-12-08T23:15:56.000,159.0,100,,-14.735,14.078,-17.008,16.103,20.638,-0.905,0.996,0.402,1.061,1.072,-0.737,-1.452,-0.42,1.544,1.6
NIED,NIG006,,38.4514,139.4963,4.0,2025-12-08T23:16:36.000,101.0,100,,-3.833,-22.806,18.443,22.809,28.741,0.491,0.422,-0.211,0.533,0.537,11.883,4.269,-0.264,12.627,12.628
NIED,TCG002,,36.9903,139.8029,619.0,2025-12-08T23:17:23.000,68.0,100,,-11.843,-4.289,6.872,12.03,13.435,0.382,-0.27,0.209,0.42,0.463,1.831,-4.149,1.351,4.532,4.729
NIED,YMT004,,38.6208,139.5889,6.0,2025-12-08T23:17:05.000,60.0,100,,-4.49,6.408,-11.113,7.52,13.086,0.522,0.458,0.456,0.564,0.565,7.779,-3.523,1.259,8.535,8.535
NIED,YMT012,,38.1087,140.043,198.0,2025-12-08T23:16:54.000,72.0,100,,-13.1,-5.1,-8.924,13.404,15.173,0.506,-0.982,-0.274,1.056,1.071,5.385,3.124,2.773,6.226,6.815
NIED,YMT013,,38.0631,139.7596,164.0,2025-12-08T23:16:52.000,102.0,100,,10.051,-5.503,-24.153,10.563,25.417,-0.63,-0.83,-0.328,0.959,1.013,-15.206,17.708,1.423,23.339,23.382
NIED,YMT016,,38.7906,140.0207,26.0,2025-12-08T23:16:38.000,60.0,100,,-4.38,18.531,33.749,18.538,37.388,0.665,-0.745,0.604,0.896,0.92,9.379,2.621,1.104,9.692,9.753
